id,name,lat,lng,slug,sku,url,icon
1e3280e0-6a2c-48cc-b3a9-92b5f390aca8,Terracero Gran Av. José Miguel Carrera 6070 Metro Ciudad del Niño - Cara 2,-33.5109208,-70.65678849999999,terracero-gran-av-jose-miguel-carrera-6070-metro-ciudad-del-nino-cara-2,,https://maps.oohpublicidad.cl/espacios-publicitarios/terracero-gran-av-jose-miguel-carrera-6070-metro-ciudad-del-nino-cara-2/modal,https://maps.oohpublicidad.cl/espacios-publicitarios/markers/marker-billboard.png
827e10aa-c6c5-4225-aa20-650fb07c5ab1,Boulevard 1 - Nivel 1 - Parque Arauco - 1 semana,-33.4017511,-70.5772259,boulevard-1-nivel-1-parque-arauco-1-semana,,https://maps.oohpublicidad.cl/espacios-publicitarios/boulevard-1-nivel-1-parque-arauco-1-semana/modal,https://maps.oohpublicidad.cl/espacios-publicitarios/markers/marker-misc.png
c54520da-9506-4ad2-a8a7-451b35c1a385,Calle interior de estacionamientos frente a Jhonson (2 Caras) - Peñalolen,-33.4877,-70.5778,calle-interior-de-estacionamientos-frente-a-jhonson-penalolen,,https://maps.oohpublicidad.cl/espacios-publicitarios/calle-interior-de-estacionamientos-frente-a-jhonson-penalolen/modal,https://maps.oohpublicidad.cl/espacios-publicitarios/markers/marker-billboard.png
cb075d4b-2af0-4890-8bae-a3f742417f64,Costado de ingreso del Metro (Sector bancos) (2 caras) - Peñalolen,-33.4872,-70.5773,costado-de-ingreso-del-metro-sector-bancos-2-caras-penalolen,,https://maps.oohpublicidad.cl/espacios-publicitarios/costado-de-ingreso-del-metro-sector-bancos-2-caras-penalolen/modal,https://maps.oohpublicidad.cl/espacios-publicitarios/markers/marker-mall.png
d8b3cc26-fcb4-44d4-8074-a99222a7a37f,Estacionamientos - Nivel 1 - Arauco Maipú - 1 semana,-33.4815197,-70.7519705,estacionamientos-nivel-1-arauco-maipu-1-semana,,https://maps.oohpublicidad.cl/espacios-publicitarios/estacionamientos-nivel-1-arauco-maipu-1-semana/modal,https://maps.oohpublicidad.cl/espacios-publicitarios/markers/marker-misc.png
59e8e1af-8427-40b9-abfb-d2787414246d,Caja de Luz - Estacionamiento - Mall Quilin,-33.4877,-70.5778,mall-quilin-caja-de-luz-penalolen,,https://maps.oohpublicidad.cl/espacios-publicitarios/mall-quilin-caja-de-luz-penalolen/modal,https://maps.oohpublicidad.cl/espacios-publicitarios/markers/marker-mall.png
7ca6ab80-86b2-477f-b0ec-4b831635b88e,Circuito Troncal 5 - 50 Valla Bus,-33.4488897,-70.6692655,circuito-50-valla-bus-troncal-5,,https://maps.oohpublicidad.cl/espacios-publicitarios/circuito-50-valla-bus-troncal-5/modal,https://maps.oohpublicidad.cl/espacios-publicitarios/markers/marker-bus.png
b202088e-3f22-487f-92be-89e8a29e5b30,Circuito - Troncal 5 - 100 Valla Bus,-33.4488897,-70.6692655,circuito-100-valla-bus-troncal-5,,https://maps.oohpublicidad.cl/espacios-publicitarios/circuito-100-valla-bus-troncal-5/modal,https://maps.oohpublicidad.cl/espacios-publicitarios/markers/marker-bus.png
39d6f88f-7083-4b24-8c46-744b6a3b3e72,Luneta Colectivo Renca - 30 Lunetas,-33.4064486,-70.72793759999999,luneta-colectivo-renca-30-lunetas,,https://maps.oohpublicidad.cl/espacios-publicitarios/luneta-colectivo-renca-30-lunetas/modal,https://maps.oohpublicidad.cl/espacios-publicitarios/markers/marker-taxi.png
857e8db9-d9df-4544-a471-23b73546339c,Topsite 3 Camino Las Flores  - Tenis Equitación Acceso a Club House,-33.396934,-70.49775700000001,totem-av-las-flores-n-3a-acceso-a-club-house,,https://maps.oohpublicidad.cl/espacios-publicitarios/totem-av-las-flores-n-3a-acceso-a-club-house/modal,https://maps.oohpublicidad.cl/espacios-publicitarios/markers/marker-billboard.png
2a542c75-1e93-499b-800c-b853e704ec10,Valla 2 Camino Las Flores acceso a Estadio Claro Arena,-33.396777,-70.502938,camino-las-flores-acceso-a-estadio-claro-arena-valla-2,,https://maps.oohpublicidad.cl/espacios-publicitarios/camino-las-flores-acceso-a-estadio-claro-arena-valla-2/modal,https://maps.oohpublicidad.cl/espacios-publicitarios/markers/marker-billboard.png
c785db36-46a4-4f3b-905f-a0fe3ba29dd5,Nueva costanera 4177 - Colegio Ursulinas (veredon Norte) (Isabel Montt),-33.393716,-70.597332,nueva-costanera-4177-colegio-ursulinas-veredon-norte-isabel-montt-paleta,,https://maps.oohpublicidad.cl/espacios-publicitarios/nueva-costanera-4177-colegio-ursulinas-veredon-norte-isabel-montt-paleta/modal,https://maps.oohpublicidad.cl/espacios-publicitarios/markers/marker-shelter.png
b3b55321-6d25-4645-9abf-bfb00c63afe8,Av. Ossa / Jose Arrieta a 500 Mts Mall Plaza Egaña,-33.4594166666667,-70.5721666666667,av-ossa-jose-arrieta-a-500-mts-mall-plaza-egana,,https://maps.oohpublicidad.cl/espacios-publicitarios/av-ossa-jose-arrieta-a-500-mts-mall-plaza-egana/modal,https://maps.oohpublicidad.cl/espacios-publicitarios/markers/marker-digital.png
6b9ec7cf-78db-4ee7-bed3-c887d1264727,AVENIDA INDEPENDENCIA FRENTE A MALL BARRIO INDEPENDENCIA,-33.423605,-70.655424,avenida-independencia-frente-a-mall-barrio-independencia,,https://maps.oohpublicidad.cl/espacios-publicitarios/avenida-independencia-frente-a-mall-barrio-independencia/modal,https://maps.oohpublicidad.cl/espacios-publicitarios/markers/marker-billboard.png
f81c8abe-ef54-4408-8ed8-ac722255a2eb,1 Boleteria - L1 Estacion Universidad de Chile,-33.44312,-70.65021,boleterias-estacion-universidad-de-chile-l3,,https://maps.oohpublicidad.cl/espacios-publicitarios/boleterias-estacion-universidad-de-chile-l3/modal,https://maps.oohpublicidad.cl/espacios-publicitarios/markers/marker-subway.png
80b8d38a-3c8d-41fd-977d-8513c8dafc0d,Av.Grecia / Pedro de Valdivia,-33.4620558,-70.6051579,av-grecia-pedro-de-valdivia-pantallas-digitales-nunoa-region-metropolitana-de-santiago,,https://maps.oohpublicidad.cl/espacios-publicitarios/av-grecia-pedro-de-valdivia-pantallas-digitales-nunoa-region-metropolitana-de-santiago/modal,https://maps.oohpublicidad.cl/espacios-publicitarios/markers/marker-digital.png
9edf0570-093e-4d1f-9273-2e1f7c0dadd1,Vitacura 6271 /  Frte.  Pueblo Ingles P-O,-33.3905272,-70.5741043,vitacura-6271-frte-pueblo-ingles-p-o,,https://maps.oohpublicidad.cl/espacios-publicitarios/vitacura-6271-frte-pueblo-ingles-p-o/modal,https://maps.oohpublicidad.cl/espacios-publicitarios/markers/marker-shelter.png
24214407-0fe0-4b8c-ac28-c54ba32d6403,1 Totem Digital Unifaz - L1 Estacion Baquedano,-33.437281931393535,-70.63327047306365,1-totem-digital-estacion-baquedano-l1,,https://maps.oohpublicidad.cl/espacios-publicitarios/1-totem-digital-estacion-baquedano-l1/modal,https://maps.oohpublicidad.cl/espacios-publicitarios/markers/marker-subway.png
29316cf4-830f-4a44-ac93-1ad740901a33,Gran Avenida / Octava Avenida,-33.51168,-70.6574356,gran-avenida-octava-avenida,,https://maps.oohpublicidad.cl/espacios-publicitarios/gran-avenida-octava-avenida/modal,https://maps.oohpublicidad.cl/espacios-publicitarios/markers/marker-billboard.png
ebe73434-4171-449a-8743-f588126eadeb,4 Panel Digital - L5 Estacion Plaza de Maipu,-33.4574154141791,-70.7159193382095,4-panel-digital-estacion-maipu-l5,,https://maps.oohpublicidad.cl/espacios-publicitarios/4-panel-digital-estacion-maipu-l5/modal,https://maps.oohpublicidad.cl/espacios-publicitarios/markers/marker-subway.png
4b0a6a72-3be6-4099-81cc-9cf319382884,Publicidad en Pantalla de Cine previo a los trailers - 45.000 contactos,-33.4474602,-70.5709076,cine-macropantalla,,https://maps.oohpublicidad.cl/espacios-publicitarios/cine-macropantalla/modal,https://maps.oohpublicidad.cl/espacios-publicitarios/markers/marker-building.png
7221cfdd-5c23-4708-b342-d91eb2d59216,"Rampa - Jumbo Lo Castillo, Acceso Principal -1 al 1",-33.399794,-70.5923502,jumbo-rampa-lo-castillo-acceso-piso-1-a-1,,https://maps.oohpublicidad.cl/espacios-publicitarios/jumbo-rampa-lo-castillo-acceso-piso-1-a-1/modal,https://maps.oohpublicidad.cl/espacios-publicitarios/markers/marker-supermarket.png
eb4d4f68-1e50-41d2-a0ef-97ff39ff78df,Rampa - Jumbo El Llano - Acceso estacionamiento -1 al 1,-33.4862788,-70.65095099999999,rampa-media-jumbo-el-llano-acceso-estacionamiento-1-al-1,,https://maps.oohpublicidad.cl/espacios-publicitarios/rampa-media-jumbo-el-llano-acceso-estacionamiento-1-al-1/modal,https://maps.oohpublicidad.cl/espacios-publicitarios/markers/marker-supermarket.png
2f8ef124-025f-442a-90cb-1dfdee9be4d2,1 Paneles - L1 Estacion Central,-33.45125,-70.67906,paneles-l1-estacion-central-1-l1ec1003a,,https://maps.oohpublicidad.cl/espacios-publicitarios/paneles-l1-estacion-central-1-l1ec1003a/modal,https://maps.oohpublicidad.cl/espacios-publicitarios/markers/marker-subway.png
e3bc7e3f-b180-4a00-bebd-eb3a8ec2d564,1 Paneles - L1 Estacion Central,-33.45125,-70.67906,paneles-l1-estacion-central-1-l1ec1011a,,https://maps.oohpublicidad.cl/espacios-publicitarios/paneles-l1-estacion-central-1-l1ec1011a/modal,https://maps.oohpublicidad.cl/espacios-publicitarios/markers/marker-subway.png
1f0c84a0-598c-41a2-8946-bb367a0a0f16,Nueva Providencia 2244 / Las Palmas A,-33.42191,-70.60862,nueva-providencia-2244-las-palmas-mobiliario-urbano-digital-providencia,,https://maps.oohpublicidad.cl/espacios-publicitarios/nueva-providencia-2244-las-palmas-mobiliario-urbano-digital-providencia/modal,https://maps.oohpublicidad.cl/espacios-publicitarios/markers/marker-shelter.png
6c52ba25-8cb7-4206-9704-ad58eb538479,AVENIDA PAJARITOS ACCESO AL CENTRO DE MAIPU DESDE AUTOPISTA VESPUCIO NORTE,-33.494122,-70.757425,avenida-pajaritos-acceso-al-centro-de-maipu-desde-autopista-vespucio-norte,,https://maps.oohpublicidad.cl/espacios-publicitarios/avenida-pajaritos-acceso-al-centro-de-maipu-desde-autopista-vespucio-norte/modal,https://maps.oohpublicidad.cl/espacios-publicitarios/markers/marker-billboard.png
8f124ce8-fe88-4d43-a89a-832608bb6990,1 Paneles - L1 Estacion Escuela Militar,-33.41343,-70.58294,paneles-l1-estacion-escuela-militar-1-l1em1004a,,https://maps.oohpublicidad.cl/espacios-publicitarios/paneles-l1-estacion-escuela-militar-1-l1em1004a/modal,https://maps.oohpublicidad.cl/espacios-publicitarios/markers/marker-subway.png
c37653fa-bf41-4f14-91fc-e4853c49dd2f,Rotonda Irene Frei - Manquehue Norte hacia Parque Arauco (ST2) (),-33.390394,-70.572849,rotonda-irene-frei-manquehue-norte-hacia-parque-arauco-pantallas-digitales,,https://maps.oohpublicidad.cl/espacios-publicitarios/rotonda-irene-frei-manquehue-norte-hacia-parque-arauco-pantallas-digitales/modal,https://maps.oohpublicidad.cl/espacios-publicitarios/markers/marker-digital.png
b59db846-6d40-4466-9664-922a25e4119b,Av. Irarrazabal con Ricardo Lyon,-33.45430340614212,-70.6020859625656,av-irarrazabal-con-ricardo-lyon,,https://maps.oohpublicidad.cl/espacios-publicitarios/av-irarrazabal-con-ricardo-lyon/modal,https://maps.oohpublicidad.cl/espacios-publicitarios/markers/marker-digital.png
cfca28ff-0884-4f94-aa42-b1766aa66568,Gladys Marin / Cuadro Verde,-33.46423,-70.724656,1559-gladys-marin-frente-al-n-6641-cuadro-verde,,https://maps.oohpublicidad.cl/espacios-publicitarios/1559-gladys-marin-frente-al-n-6641-cuadro-verde/modal,https://maps.oohpublicidad.cl/espacios-publicitarios/markers/marker-billboard.png
b2298903-f197-404f-94d5-4d5f055ebfe3,Av. Condell /  Ñuble,-33.402623,-70.730747,condell-1555-nuble,,https://maps.oohpublicidad.cl/espacios-publicitarios/condell-1555-nuble/modal,https://maps.oohpublicidad.cl/espacios-publicitarios/markers/marker-billboard.png
1fb03010-1dba-4f74-8500-ebc3792fd5ea,Nivel 1 Salida a Boulevard frente a acceso metro,-33.516049,-70.595668,nivel-1-salida-a-boulevard-frente-a-acceso-metro,,https://maps.oohpublicidad.cl/espacios-publicitarios/nivel-1-salida-a-boulevard-frente-a-acceso-metro/modal,https://maps.oohpublicidad.cl/espacios-publicitarios/markers/marker-building.png
846a30e8-c671-4fe0-a560-4167a7d57164,Jorge Hirmas / Issa Pichara,-33.418636,-70.681354,jorge-hirmas-2631-panal,,https://maps.oohpublicidad.cl/espacios-publicitarios/jorge-hirmas-2631-panal/modal,https://maps.oohpublicidad.cl/espacios-publicitarios/markers/marker-billboard.png
c9b74204-844d-4f6e-8cb1-0e45cf4ea7d7,Neptuno / Membrillar,-33.431616,-70.720532,1712-neptuno-1524-membrillar,,https://maps.oohpublicidad.cl/espacios-publicitarios/1712-neptuno-1524-membrillar/modal,https://maps.oohpublicidad.cl/espacios-publicitarios/markers/marker-billboard.png
8f3da1a8-9d06-456b-b27a-9a18bb9b124d,Ruta 68 / Laguna Sur,-33.45748,-70.719201,1997-ruta-68-600-laguna-sur,,https://maps.oohpublicidad.cl/espacios-publicitarios/1997-ruta-68-600-laguna-sur/modal,https://maps.oohpublicidad.cl/espacios-publicitarios/markers/marker-billboard.png
29c4e1af-0f02-42ea-9c93-bfc1e0bc6308,Soberanía entre Bajele (Barajales) y Arquitecto Arturo Bianchi,-33.419348,-70.668949,soberania-1019-501909a1,,https://maps.oohpublicidad.cl/espacios-publicitarios/soberania-1019-501909a1/modal,https://maps.oohpublicidad.cl/espacios-publicitarios/markers/marker-billboard.png
551c413d-43f4-49e8-b4c9-0aef1bdfc1a5,Bajada La Piramide 2,-33.39029494453345,-70.60405274702032,av-americo-vespucio-46-7,,https://maps.oohpublicidad.cl/espacios-publicitarios/av-americo-vespucio-46-7/modal,https://maps.oohpublicidad.cl/espacios-publicitarios/markers/marker-billboard.png
69dc0bc4-7d8b-4299-a90f-e7257f49748b,San Francisco / Gabriela Mistral,-33.436304,-70.736252,2053-san-francisco-8042-gabriela-mistral,,https://maps.oohpublicidad.cl/espacios-publicitarios/2053-san-francisco-8042-gabriela-mistral/modal,https://maps.oohpublicidad.cl/espacios-publicitarios/markers/marker-billboard.png
08db1b07-2f2e-457e-b7d9-b0e8696d39df,Bellavista con Loreto,-33.4332982,-70.64263199999999,bellavista-con-loreto,,https://maps.oohpublicidad.cl/espacios-publicitarios/bellavista-con-loreto/modal,https://maps.oohpublicidad.cl/espacios-publicitarios/markers/marker-digital.png
86c005ec-0aeb-4c8c-aa15-5187db543008,Vespucio Norte / El Salto,-33.3907,-70.6301,vespucio-norte-el-salto-recoleta,,https://maps.oohpublicidad.cl/espacios-publicitarios/vespucio-norte-el-salto-recoleta/modal,https://maps.oohpublicidad.cl/espacios-publicitarios/markers/marker-billboard.png
13a3f734-7a2e-4803-b214-1aaf81df3361,Av. Américo Vespucio Sur 6605 - Pasaje El Parque (direccional a Mall Plaza Vespucio),-33.51500598312743,-70.59289064915161,no-vender-aun-instalandose-av-americo-vespucio-sur-6605-pasaje-el-parque,,https://maps.oohpublicidad.cl/espacios-publicitarios/no-vender-aun-instalandose-av-americo-vespucio-sur-6605-pasaje-el-parque/modal,https://maps.oohpublicidad.cl/espacios-publicitarios/markers/marker-digital.png
3210d90d-2ec1-4224-9137-3ed775edb486,"Acceso Sur a Santiago desde Vespucio, antes de Departamental",-33.51090621948242,-70.67029571533203,acceso-sur-a-santiago-desde-vespucio-antes-de-departamental,,https://maps.oohpublicidad.cl/espacios-publicitarios/acceso-sur-a-santiago-desde-vespucio-antes-de-departamental/modal,https://maps.oohpublicidad.cl/espacios-publicitarios/markers/marker-billboard.png
9e4c54b2-d7cb-4eec-8d55-712b43784021,Alameda (Bandejón central) 4915 / Pezoa Veliz,-33.4567,-70.7033,alameda-bandejon-central-4915-pezoa-veliz,,https://maps.oohpublicidad.cl/espacios-publicitarios/alameda-bandejon-central-4915-pezoa-veliz/modal,https://maps.oohpublicidad.cl/espacios-publicitarios/markers/marker-billboard.png
590dc27f-1b86-4b40-abd4-38d1161d5ed9,Callejón El Martillo / Gamero,-33.421025,-70.673366,gamero-2909-independencia,,https://maps.oohpublicidad.cl/espacios-publicitarios/gamero-2909-independencia/modal,https://maps.oohpublicidad.cl/espacios-publicitarios/markers/marker-billboard.png
311ba6e9-b0e8-4bdf-b47f-7ee48ee71315,Av. Miraflores / Flor de Mayo,-33.400125,-70.753469,miraflores-8013-renca,,https://maps.oohpublicidad.cl/espacios-publicitarios/miraflores-8013-renca/modal,https://maps.oohpublicidad.cl/espacios-publicitarios/markers/marker-billboard.png
2a257368-25aa-485a-9804-f3c80cf43989,Av. Fermín Vivaceta / Nueva de Matte,-33.409006,-70.666749,vivaceta-nva-de-matte,,https://maps.oohpublicidad.cl/espacios-publicitarios/vivaceta-nva-de-matte/modal,https://maps.oohpublicidad.cl/espacios-publicitarios/markers/marker-billboard.png
7f07c4a9-ae5e-461a-a0c5-9f5fd9152457,Video Wall - L1 Estacion Manquehue,-33.4091122268444,-70.5684097577026,video-wall-l1-estacion-manquehue-1,,https://maps.oohpublicidad.cl/espacios-publicitarios/video-wall-l1-estacion-manquehue-1/modal,https://maps.oohpublicidad.cl/espacios-publicitarios/markers/marker-subway.png
b2f251de-b5b9-453b-a712-02c682ba4f5e,Building - Av. Independencia 435,-33.4259033,-70.65436559999999,av-independencia-435,,https://maps.oohpublicidad.cl/espacios-publicitarios/av-independencia-435/modal,https://maps.oohpublicidad.cl/espacios-publicitarios/markers/marker-billboard.png
2385e693-2e7c-440a-9d70-9ceb47ddd7ec,1 Paneles - L1 Estacion Pajaritos,-33.4574154141791,-70.7159193382095,paneles-l1-estacion-pajaritos-1-l1pj1004a,,https://maps.oohpublicidad.cl/espacios-publicitarios/paneles-l1-estacion-pajaritos-1-l1pj1004a/modal,https://maps.oohpublicidad.cl/espacios-publicitarios/markers/marker-subway.png
501bb087-9a34-4618-83e3-ac3a07844324,Av. Padre Alberto Hurtado / Av. Libertador Bdo. O´Higgins (Norte),-33.453369,-70.691216,alameda-general-velasquez,,https://maps.oohpublicidad.cl/espacios-publicitarios/alameda-general-velasquez/modal,https://maps.oohpublicidad.cl/espacios-publicitarios/markers/marker-billboard.png
cb312235-cdf7-4d7e-89c5-550669406a71,1 Gran Digital - L1 Estacion Republica,-33.44772531810407,-70.66702507207492,1-gran-digital-estacion-republica-l1,,https://maps.oohpublicidad.cl/espacios-publicitarios/1-gran-digital-estacion-republica-l1/modal,https://maps.oohpublicidad.cl/espacios-publicitarios/markers/marker-subway.png
a834c721-7aa4-49c9-81ca-ba97000c2a9e,Circuito Troncal 2 - 30 Lunetas,-33.4378305,-70.6504492,circuito-troncal-2-30-lunetas-bus-lateral,,https://maps.oohpublicidad.cl/espacios-publicitarios/circuito-troncal-2-30-lunetas-bus-lateral/modal,https://maps.oohpublicidad.cl/espacios-publicitarios/markers/marker-bus.png
386da51c-7cf9-4a44-8b9f-90e43a4f4a08,1 Paneles - L1 Estacion Alberto Hurtado,-33.45388,-70.69237,paneles-l1-estacion-alberto-hurtado-1-l1ah1008a,,https://maps.oohpublicidad.cl/espacios-publicitarios/paneles-l1-estacion-alberto-hurtado-1-l1ah1008a/modal,https://maps.oohpublicidad.cl/espacios-publicitarios/markers/marker-subway.png
5e8f123c-b06a-4445-b0de-1ae2a13bdc54,1 Paneles - L1 Estacion Las Rejas,-33.45723,-70.70634,paneles-l1-estacion-las-rejas-1-l1rj1006a,,https://maps.oohpublicidad.cl/espacios-publicitarios/paneles-l1-estacion-las-rejas-1-l1rj1006a/modal,https://maps.oohpublicidad.cl/espacios-publicitarios/markers/marker-subway.png
cf29b6ca-1a32-4629-be7a-bfdffd75ee54,Puerta Barrera Control - L3 Estacion Plaza Chacabuco / 1 Caras,-33.4066508014667,-70.6609554031494,puerta-barrera-control-l3-estacion-plaza-chacabuco-1-caras,,https://maps.oohpublicidad.cl/espacios-publicitarios/puerta-barrera-control-l3-estacion-plaza-chacabuco-1-caras/modal,https://maps.oohpublicidad.cl/espacios-publicitarios/markers/marker-subway.png
240a361e-a5f3-4c87-b2d5-51491e1bfe33,Fondo de Curva/ Pie Andino/ Vitacura-Chicureo,-33.3531736328811,-70.61541707219126,autopista-nororiente-vitacura-region-metropolitana-chile,,https://maps.oohpublicidad.cl/espacios-publicitarios/autopista-nororiente-vitacura-region-metropolitana-chile/modal,https://maps.oohpublicidad.cl/espacios-publicitarios/markers/marker-billboard.png
61dccb40-b639-4ab9-95a5-30646ac37cdf,Cajas de Luz - Hiper Lider Plaza Norte (1),-33.3662,-70.6785,cajas-de-luz-hiper-lider-plaza-norte,,https://maps.oohpublicidad.cl/espacios-publicitarios/cajas-de-luz-hiper-lider-plaza-norte/modal,https://maps.oohpublicidad.cl/espacios-publicitarios/markers/marker-supermarket.png
63f4e7a8-707a-4b49-88f8-21494892d905,Grecia al llegar a Vespucio (O - P),-33.46888976140283,-70.57752047064764,grecia-al-llegar-a-vespucio-b,,https://maps.oohpublicidad.cl/espacios-publicitarios/grecia-al-llegar-a-vespucio-b/modal,https://maps.oohpublicidad.cl/espacios-publicitarios/markers/marker-billboard.png
0d35f3e7-d17e-424f-af41-e712d0a6147a,1 Paneles - L1 Estacion El Golf,-33.41652,-70.59621,paneles-l1-estacion-el-golf-1-l1go1002a,,https://maps.oohpublicidad.cl/espacios-publicitarios/paneles-l1-estacion-el-golf-1-l1go1002a/modal,https://maps.oohpublicidad.cl/espacios-publicitarios/markers/marker-subway.png
fcb614f5-ffcb-4a69-bc88-9238e59f8ee8,Muro Asiento Nº 8 - L6 Estación Ñuble,-33.46719,-70.62519,muro-asiento-n-8-l6-estacion-nuble,,https://maps.oohpublicidad.cl/espacios-publicitarios/muro-asiento-n-8-l6-estacion-nuble/modal,https://maps.oohpublicidad.cl/espacios-publicitarios/markers/marker-subway.png
598ebd9f-a139-4975-b1fd-1f701c244065,Cajas de Luz -  Interior Nivel 02 Est Sub - Parque Arauco (1),-33.4024,-70.5799,caja-de-luz-interior-nivel-02-est-sub-parque-arauco,,https://maps.oohpublicidad.cl/espacios-publicitarios/caja-de-luz-interior-nivel-02-est-sub-parque-arauco/modal,https://maps.oohpublicidad.cl/espacios-publicitarios/markers/marker-mall.png
135746ca-165c-456d-a560-bd96d50e41e3,Muro Nº 1 - L1 Estación Los Dominicos,-33.4080136,-70.5452013,muro-n-1-l1-estacion-los-dominicos,,https://maps.oohpublicidad.cl/espacios-publicitarios/muro-n-1-l1-estacion-los-dominicos/modal,https://maps.oohpublicidad.cl/espacios-publicitarios/markers/marker-subway.png
ac05f238-d37c-4ad2-845f-260a0f2c2826,1 Paneles - L1 Estacion Manuel Montt,-33.42805,-70.61919,paneles-l1-estacion-manuel-montt-1-l1mm1006a,,https://maps.oohpublicidad.cl/espacios-publicitarios/paneles-l1-estacion-manuel-montt-1-l1mm1006a/modal,https://maps.oohpublicidad.cl/espacios-publicitarios/markers/marker-subway.png
abfb709f-4262-4f29-9f91-fcf2ae751a78,Superior Ventana Ns-07 (9) (Caf) - L1 San Pablo - Los Dominicos / 108 Caras,-33.44422,-70.7233,superior-ventana-ns-07-9-caf-l1-san-pablo-los-dominicos-108-caras-abfb709f-4262-4f29-9f91-fcf2ae751a78,,https://maps.oohpublicidad.cl/espacios-publicitarios/superior-ventana-ns-07-9-caf-l1-san-pablo-los-dominicos-108-caras-abfb709f-4262-4f29-9f91-fcf2ae751a78/modal,https://maps.oohpublicidad.cl/espacios-publicitarios/markers/marker-subway.png
ea973b38-6df5-428a-8c16-977df5f14ff3,1 Paneles - L2 Estacion Toesca,-33.45283,-70.65856,paneles-l2-estacion-toesca-1-l2to1004a,,https://maps.oohpublicidad.cl/espacios-publicitarios/paneles-l2-estacion-toesca-1-l2to1004a/modal,https://maps.oohpublicidad.cl/espacios-publicitarios/markers/marker-subway.png
8da07c58-91e1-47d3-af8b-552421f1a1ba,"Interior Metro - Respaldo, techo y lateral puerta - Todas las estaciones",-33.44422,-70.7233,interior-tren-ns-93-8-boa-l1-san-pablo-los-dominicos-1-caras-8da07c58-91e1-47d3-af8b-552421f1a1ba,,https://maps.oohpublicidad.cl/espacios-publicitarios/interior-tren-ns-93-8-boa-l1-san-pablo-los-dominicos-1-caras-8da07c58-91e1-47d3-af8b-552421f1a1ba/modal,https://maps.oohpublicidad.cl/espacios-publicitarios/markers/marker-subway.png
cbef7fe3-1750-4e3e-bd58-1ae8363aa65b,Valla 5  República de Honduras acceso UDD y Estadio Claro Arena,-33.394108,-70.500798,acceso-a-edificio-dptvo-y-claro-arena-por-republica-de-honduras-valla-5,,https://maps.oohpublicidad.cl/espacios-publicitarios/acceso-a-edificio-dptvo-y-claro-arena-por-republica-de-honduras-valla-5/modal,https://maps.oohpublicidad.cl/espacios-publicitarios/markers/marker-billboard.png
4a334b14-385f-4e5b-97ea-3f16a63c3601,Muro Nº 19 - L5 Estación Baquedano,-33.43739812429799,-70.63498912170408,muro-n-19-l5-estacion-baquedano,,https://maps.oohpublicidad.cl/espacios-publicitarios/muro-n-19-l5-estacion-baquedano/modal,https://maps.oohpublicidad.cl/espacios-publicitarios/markers/marker-subway.png
b789f864-14b5-4a02-9945-ecf58bab66f8,Superior Ventana As-02 (Alstom) - L4 Plaza Puente Alto - Tobalaba / 46 Caras,-33.4182887,-70.6014936999999,superior-ventana-as-02-alstom-l4-plaza-puente-alto-tobalaba-46-caras-b789f864-14b5-4a02-9945-ecf58bab66f8,,https://maps.oohpublicidad.cl/espacios-publicitarios/superior-ventana-as-02-alstom-l4-plaza-puente-alto-tobalaba-46-caras-b789f864-14b5-4a02-9945-ecf58bab66f8/modal,https://maps.oohpublicidad.cl/espacios-publicitarios/markers/marker-subway.png
535bc561-a029-45ed-a42d-4e14e159184e,Muro / L5 / Estación Plaza Maipú,-33.51052,-70.75722999999999,muro-l5-estacion-plaza-maipu-metro-muro,,https://maps.oohpublicidad.cl/espacios-publicitarios/muro-l5-estacion-plaza-maipu-metro-muro/modal,https://maps.oohpublicidad.cl/espacios-publicitarios/markers/marker-subway.png
8a0a34a6-5c9e-4e5a-b9d9-8f157b10253a,Superior Ventana As-14 (Caf - Thales) - L3 Fernando Castillo Velasco - Los Libertadores / 79 Caras,-33.4521044507533,-70.5579216848083,superior-ventana-as-14-caf-thales-l3-fernando-castillo-velasco-los-libertadores-79-caras-8a0a34a6-5c9e-4e5a-b9d9-8f157b10253a,,https://maps.oohpublicidad.cl/espacios-publicitarios/superior-ventana-as-14-caf-thales-l3-fernando-castillo-velasco-los-libertadores-79-caras-8a0a34a6-5c9e-4e5a-b9d9-8f157b10253a/modal,https://maps.oohpublicidad.cl/espacios-publicitarios/markers/marker-subway.png
e65479bc-a374-4d1a-8a59-8c20f9439606,Branding Escaleras Mecánicas / Nivel 1 a 2 / Mall Parque Arauco,-33.4017511,-70.5772259,branding-escaleras-mecanicas-nivel-1-a-2-mall-parque-arauco,,https://maps.oohpublicidad.cl/espacios-publicitarios/branding-escaleras-mecanicas-nivel-1-a-2-mall-parque-arauco/modal,https://maps.oohpublicidad.cl/espacios-publicitarios/markers/marker-mall.png
813fb64f-ba70-42c5-9ebf-9fda1b912f32,Led - Pasillo Central Sur- Interior Nivel 01 Entre La Polar Y Tricot - Arauco Maipú (1),-33.482,-70.7532,video-wall-pasillo-central-sur-6-monitores-interior-nivel-01-entre-la-polar-y-tricot-arauco-maipu,,https://maps.oohpublicidad.cl/espacios-publicitarios/video-wall-pasillo-central-sur-6-monitores-interior-nivel-01-entre-la-polar-y-tricot-arauco-maipu/modal,https://maps.oohpublicidad.cl/espacios-publicitarios/markers/marker-mall.png
a10a6899-577a-4e93-b069-604c1238f250,1 Paneles - L5 Estacion Parque Bustamante,-33.44271,-70.63175,paneles-l5-estacion-parque-bustamante-1-l5pb1004a,,https://maps.oohpublicidad.cl/espacios-publicitarios/paneles-l5-estacion-parque-bustamante-1-l5pb1004a/modal,https://maps.oohpublicidad.cl/espacios-publicitarios/markers/marker-subway.png
eacdbc0e-16a4-4f99-b47d-5eabc05c474d,1 Paneles - L3 Estacion Plaza Chacabuco,-33.40643,-70.66103,paneles-l3-estacion-plaza-chacabuco-1-l3pc1004a,,https://maps.oohpublicidad.cl/espacios-publicitarios/paneles-l3-estacion-plaza-chacabuco-1-l3pc1004a/modal,https://maps.oohpublicidad.cl/espacios-publicitarios/markers/marker-subway.png
1aadf2d6-3059-4b30-a4b0-7a21478c1844,Led - Circular 360° - Interior Plaza del Reloj - Parque Arauco (1),-33.4024,-70.5799,led-circular-360-interior-plaza-del-reloj-parque-arauco,,https://maps.oohpublicidad.cl/espacios-publicitarios/led-circular-360-interior-plaza-del-reloj-parque-arauco/modal,https://maps.oohpublicidad.cl/espacios-publicitarios/markers/marker-mall.png
87634718-3aa6-43f0-9b2a-209e1aeecffb,Pasarela Carrascal / Matucana,-33.42674323277648,-70.67794745206334,pasarela-carrascal-matucana,,https://maps.oohpublicidad.cl/espacios-publicitarios/pasarela-carrascal-matucana/modal,https://maps.oohpublicidad.cl/espacios-publicitarios/markers/marker-billboard.png
fc98c0eb-5224-4bd0-b37a-9abf87a25a0c,1 Paneles - L2 Estacion Parque O´Higgins,-33.46098,-70.65686,paneles-l2-estacion-parque-o-higgins-1-l2oh1002a,,https://maps.oohpublicidad.cl/espacios-publicitarios/paneles-l2-estacion-parque-o-higgins-1-l2oh1002a/modal,https://maps.oohpublicidad.cl/espacios-publicitarios/markers/marker-subway.png
fd673cfb-2c7b-4466-993c-83fa60e1b392,Led - Exterior Acceso Cerro Colorado - Parque Arauco (1),-33.4024,-70.5799,led-exterior-acceso-cerro-colorado-parque-arauco,,https://maps.oohpublicidad.cl/espacios-publicitarios/led-exterior-acceso-cerro-colorado-parque-arauco/modal,https://maps.oohpublicidad.cl/espacios-publicitarios/markers/marker-mall.png
f3ee7240-9923-4a0d-841b-bafdad795b5c,Santa Isabel / Lord Chrocanne 2,-33.45286436749151,-70.65446282998164,santa-isabel-lord-chrocanne-2,,https://maps.oohpublicidad.cl/espacios-publicitarios/santa-isabel-lord-chrocanne-2/modal,https://maps.oohpublicidad.cl/espacios-publicitarios/markers/marker-billboard.png
10d1e5b4-ad9a-4a15-a952-5119288f2f66,1 Paneles - L5 Estacion Barrancas,-33.45245,-70.73904,paneles-l5-estacion-barrancas-1,,https://maps.oohpublicidad.cl/espacios-publicitarios/paneles-l5-estacion-barrancas-1/modal,https://maps.oohpublicidad.cl/espacios-publicitarios/markers/marker-subway.png
d69e896d-37d4-4daa-a518-8107467d4456,Sensores Acceso / Hiper Lider Irarrazaval,-33.4543209,-70.6004407,sensores-acceso-hiper-lider-irarrazaval,,https://maps.oohpublicidad.cl/espacios-publicitarios/sensores-acceso-hiper-lider-irarrazaval/modal,https://maps.oohpublicidad.cl/espacios-publicitarios/markers/marker-supermarket.png
026a81c5-bb22-47a6-9375-e9cf95b89b8a,Interior Tren (Lateral Puerta Entre Carros) - L1 San Pablo - Los Domínicos,-33.44422,-70.7233,interior-tren-ns-07-9-caf-lateral-puerta-entre-carros-l1-san-pablo-los-dominicos-1-caras-metro-tren,,https://maps.oohpublicidad.cl/espacios-publicitarios/interior-tren-ns-07-9-caf-lateral-puerta-entre-carros-l1-san-pablo-los-dominicos-1-caras-metro-tren/modal,https://maps.oohpublicidad.cl/espacios-publicitarios/markers/marker-subway.png
f3de7bce-cb38-40c3-8a2d-8fdee0d94027,Led - - Unimarc Foodmarket Los Militares (1),-33.4039,-70.5691,led-unimarc-foodmarket-los-militares,,https://maps.oohpublicidad.cl/espacios-publicitarios/led-unimarc-foodmarket-los-militares/modal,https://maps.oohpublicidad.cl/espacios-publicitarios/markers/marker-supermarket.png
6ac06943-e7d1-4587-8e03-842f9cdd337a,1 Paneles - L4 Estacion Quilin,-33.48817,-70.58051,paneles-l4-estacion-quilin-1-l4ql1003a,,https://maps.oohpublicidad.cl/espacios-publicitarios/paneles-l4-estacion-quilin-1-l4ql1003a/modal,https://maps.oohpublicidad.cl/espacios-publicitarios/markers/marker-subway.png
1f88a3a8-3f89-4fcc-bba5-f073369a2feb,1 Paneles - L1 Estacion Central,-33.45125,-70.67906,paneles-l1-estacion-central-1-l1ec1009a,,https://maps.oohpublicidad.cl/espacios-publicitarios/paneles-l1-estacion-central-1-l1ec1009a/modal,https://maps.oohpublicidad.cl/espacios-publicitarios/markers/marker-subway.png
9557e3e0-8337-450c-94ea-015e7cf623b4,1 Paneles - L2 Estacion Cal Y Canto,-33.43256,-70.65243,paneles-l2-estacion-cal-y-canto-1,,https://maps.oohpublicidad.cl/espacios-publicitarios/paneles-l2-estacion-cal-y-canto-1/modal,https://maps.oohpublicidad.cl/espacios-publicitarios/markers/marker-subway.png
250c0bf6-a3c1-425b-99ea-e993c15135bd,Mega Pendón Andenes - Paseo Arauco Estación,-33.4518973,-70.67992679999999,mega-pendon-andenes-paseo-arauco-estacion,,https://maps.oohpublicidad.cl/espacios-publicitarios/mega-pendon-andenes-paseo-arauco-estacion/modal,https://maps.oohpublicidad.cl/espacios-publicitarios/markers/marker-mall.png
62e12590-fba8-4d46-8fbf-358814f8cee7,Superior Ventana As-14 (Caf - Thales) - L3 Fernando Castillo Velasco - Los Libertadores / 79 Caras,-33.4521044507533,-70.5579216848083,superior-ventana-as-14-caf-thales-l3-fernando-castillo-velasco-los-libertadores-79-caras-62e12590-fba8-4d46-8fbf-358814f8cee7,,https://maps.oohpublicidad.cl/espacios-publicitarios/superior-ventana-as-14-caf-thales-l3-fernando-castillo-velasco-los-libertadores-79-caras-62e12590-fba8-4d46-8fbf-358814f8cee7/modal,https://maps.oohpublicidad.cl/espacios-publicitarios/markers/marker-subway.png
e2a2a66f-3310-4d5f-9fbc-7837c0a63cdd,1 Monumental Digital - L1 Estacion Santa Lucia,-33.44021,-70.64055,monumental-digital-l1-estacion-santa-lucia-1,,https://maps.oohpublicidad.cl/espacios-publicitarios/monumental-digital-l1-estacion-santa-lucia-1/modal,https://maps.oohpublicidad.cl/espacios-publicitarios/markers/marker-subway.png
d741239f-0b44-4e39-882c-d36d9cb74a27,1 Paneles - L2 Estacion Ciudad del Nino,-33.50957,-70.65678,paneles-l2-estacion-ciudad-del-nino-1-l2ni1002a,,https://maps.oohpublicidad.cl/espacios-publicitarios/paneles-l2-estacion-ciudad-del-nino-1-l2ni1002a/modal,https://maps.oohpublicidad.cl/espacios-publicitarios/markers/marker-subway.png
a284315a-6dbe-4ba9-816a-8e55867b367b,Muro Nº 10 - L6 Estacion Los Leones,-33.42213277309983,-70.60882151460265,muro-n-10-l6-estacion-los-leones,,https://maps.oohpublicidad.cl/espacios-publicitarios/muro-n-10-l6-estacion-los-leones/modal,https://maps.oohpublicidad.cl/espacios-publicitarios/markers/marker-subway.png
2aeafffe-b321-4ed5-9d16-84fa2b9b9097,Muro N.º 4 - L1 Estación Tobalaba,-33.4182887,-70.60149369999999,muro-n-4-l1-estacion-tobalaba,,https://maps.oohpublicidad.cl/espacios-publicitarios/muro-n-4-l1-estacion-tobalaba/modal,https://maps.oohpublicidad.cl/espacios-publicitarios/markers/marker-subway.png
1ff689e0-06bd-409b-be8f-f4f5c969855e,Exterior Tren Ns-93 (8) (Boa) - L1 San Pablo - Los Dominicos / 1 Caras,-33.44422,-70.7233,exterior-tren-ns-93-8-boa-l1-san-pablo-los-dominicos-1-caras-1ff689e0-06bd-409b-be8f-f4f5c969855e,,https://maps.oohpublicidad.cl/espacios-publicitarios/exterior-tren-ns-93-8-boa-l1-san-pablo-los-dominicos-1-caras-1ff689e0-06bd-409b-be8f-f4f5c969855e/modal,https://maps.oohpublicidad.cl/espacios-publicitarios/markers/marker-subway.png
e7792feb-8da0-48f6-8e9e-40f4182a48b3,Superior Ventana Ns-07 (9) (Caf) - L1 San Pablo - Los Dominicos / 108 Caras,-33.44422,-70.7233,superior-ventana-ns-07-9-caf-l1-san-pablo-los-dominicos-108-caras-e7792feb-8da0-48f6-8e9e-40f4182a48b3,,https://maps.oohpublicidad.cl/espacios-publicitarios/superior-ventana-ns-07-9-caf-l1-san-pablo-los-dominicos-108-caras-e7792feb-8da0-48f6-8e9e-40f4182a48b3/modal,https://maps.oohpublicidad.cl/espacios-publicitarios/markers/marker-subway.png
6096ddb3-a0c9-4d02-8544-459e6c8a881e,Interior Tren Ns-07 (9) (Caf) (Lateral Puerta Entre Carros) - L1 San Pablo - Los Dominicos / 1 Caras,-33.44422,-70.7233,interior-tren-ns-07-9-caf-lateral-puerta-entre-carros-l1-san-pablo-los-dominicos-1-caras-6096ddb3-a0c9-4d02-8544-459e6c8a881e,,https://maps.oohpublicidad.cl/espacios-publicitarios/interior-tren-ns-07-9-caf-lateral-puerta-entre-carros-l1-san-pablo-los-dominicos-1-caras-6096ddb3-a0c9-4d02-8544-459e6c8a881e/modal,https://maps.oohpublicidad.cl/espacios-publicitarios/markers/marker-subway.png
cf0f6628-f0cc-45ef-8f8d-81778d8abc52,Pera inflable,-33.4488897,-70.6692655,publicidad-en-inflables,,https://maps.oohpublicidad.cl/espacios-publicitarios/publicidad-en-inflables/modal,https://maps.oohpublicidad.cl/espacios-publicitarios/markers/marker-misc.png
6ce772de-ef96-40db-be6d-0a3d352a008a,Puerta Barrera Control - L6 Estacion Lo Valledor / 1 Caras,-33.478,-70.6806,puerta-barrera-control-l6-estacion-lo-valledor-1-caras,,https://maps.oohpublicidad.cl/espacios-publicitarios/puerta-barrera-control-l6-estacion-lo-valledor-1-caras/modal,https://maps.oohpublicidad.cl/espacios-publicitarios/markers/marker-subway.png
82c5c3e2-fa54-4fd0-a7ed-13e4954b2aaa,Muro  N° 14 / L4 Estación Tobalaba,-33.4182887,-70.60149369999999,muro-n-14-l4-estacion-tobalaba,,https://maps.oohpublicidad.cl/espacios-publicitarios/muro-n-14-l4-estacion-tobalaba/modal,https://maps.oohpublicidad.cl/espacios-publicitarios/markers/marker-subway.png
540b902e-7065-4337-9c51-8005ca997636,1 Paneles - L4 Estacion Bilbao,-33.43113,-70.58499,paneles-l4-estacion-bilbao-1-l4bb1003a,,https://maps.oohpublicidad.cl/espacios-publicitarios/paneles-l4-estacion-bilbao-1-l4bb1003a/modal,https://maps.oohpublicidad.cl/espacios-publicitarios/markers/marker-subway.png
bf2c29e6-0d59-4ac6-8f72-3bd6aac620b1,Cajas de Luz Mall Sport (1),-33.3705791997317,-70.5067688095093,cajas-de-luz-mall-sport-1-masp0025a,,https://maps.oohpublicidad.cl/espacios-publicitarios/cajas-de-luz-mall-sport-1-masp0025a/modal,https://maps.oohpublicidad.cl/espacios-publicitarios/markers/marker-mall.png
31d92af6-5a9f-496e-9619-357192b4004d,Led - Plaza Cristales Poniente Entre Maui Y Reifschneider - Parque Arauco (1),-33.4024,-70.5799,led-interior-nivel-02-plaza-cristales-poniente-entre-maui-y-reifschneider-parque-arauco,,https://maps.oohpublicidad.cl/espacios-publicitarios/led-interior-nivel-02-plaza-cristales-poniente-entre-maui-y-reifschneider-parque-arauco/modal,https://maps.oohpublicidad.cl/espacios-publicitarios/markers/marker-mall.png
70abddb6-48c2-41cc-8fc5-75af69dc7d6a,1 Gran Digital - L3 Estacion Irarrazaval,-33.45313844025063,-70.62892071401672,1-gran-digital-estacion-irarrazaval-l3,,https://maps.oohpublicidad.cl/espacios-publicitarios/1-gran-digital-estacion-irarrazaval-l3/modal,https://maps.oohpublicidad.cl/espacios-publicitarios/markers/marker-subway.png
25a93272-c1a8-485d-83f5-1fa902ad0027,1 Paneles - L2 Estacion Cerro Blanco,-33.42235,-70.64507,paneles-l2-estacion-cerro-blanco-1-l2cb1003a,,https://maps.oohpublicidad.cl/espacios-publicitarios/paneles-l2-estacion-cerro-blanco-1-l2cb1003a/modal,https://maps.oohpublicidad.cl/espacios-publicitarios/markers/marker-subway.png
269c61ff-ce7e-414d-b8db-2ad25631c54b,Muro Asiento N°6 - L2 Estación Parque O´Higgins,-33.4606197,-70.6563025,muro-asiento-n-6-l2-estacion-parque-o-higgins,,https://maps.oohpublicidad.cl/espacios-publicitarios/muro-asiento-n-6-l2-estacion-parque-o-higgins/modal,https://maps.oohpublicidad.cl/espacios-publicitarios/markers/marker-subway.png
0fdb9231-3260-45cd-8677-8cf31673aaaf,Superior Ventana Ns-93 (8) (Boa) - L1 San Pablo - Los Dominicos / 92 Caras,-33.44422,-70.7233,superior-ventana-ns-93-8-boa-l1-san-pablo-los-dominicos-92-caras-0fdb9231-3260-45cd-8677-8cf31673aaaf,,https://maps.oohpublicidad.cl/espacios-publicitarios/superior-ventana-ns-93-8-boa-l1-san-pablo-los-dominicos-92-caras-0fdb9231-3260-45cd-8677-8cf31673aaaf/modal,https://maps.oohpublicidad.cl/espacios-publicitarios/markers/marker-subway.png
8ea5faaa-5f56-48fd-bdcf-5f49ab8e1bda,1 Totem Digital Bifaz - L1 Estacion Los Heroes,-33.44601,-70.66042,2-totem-digital-estacion-los-heroes-l1,,https://maps.oohpublicidad.cl/espacios-publicitarios/2-totem-digital-estacion-los-heroes-l1/modal,https://maps.oohpublicidad.cl/espacios-publicitarios/markers/marker-subway.png
12bd7bfe-7290-4bb6-92d6-1c4d20dedc73,Av. Ossa s/n / Larraín (fte. Mall Plaza Egaña),-33.4527397,-70.5707387,av-ossa-s-n-larrain-fte-mall-plaza-egana,,https://maps.oohpublicidad.cl/espacios-publicitarios/av-ossa-s-n-larrain-fte-mall-plaza-egana/modal,https://maps.oohpublicidad.cl/espacios-publicitarios/markers/marker-shelter.png
629c3e71-f5c6-426d-84ab-192957fc2d65,1 Paneles - L1 Estacion Universidad de Santiago,-33.45268,-70.68608,paneles-l1-estacion-universidad-de-santiago-1-l1us1011a,,https://maps.oohpublicidad.cl/espacios-publicitarios/paneles-l1-estacion-universidad-de-santiago-1-l1us1011a/modal,https://maps.oohpublicidad.cl/espacios-publicitarios/markers/marker-subway.png
82d0482b-6ed9-4b24-be86-5fbd25dda474,1 Paneles - L5 Estacion Pedrero,-33.50759,-70.61267,paneles-l5-estacion-pedrero-1-l5pd1002a,,https://maps.oohpublicidad.cl/espacios-publicitarios/paneles-l5-estacion-pedrero-1-l5pd1002a/modal,https://maps.oohpublicidad.cl/espacios-publicitarios/markers/marker-subway.png
67d9445c-afdd-418f-a4b7-fd9d6aa02961,5 Mampara Digital - L6 Estacion Los Leones,-33.42213277309983,-70.60882151460265,mamparas-digitales-l6-los-leones-5,,https://maps.oohpublicidad.cl/espacios-publicitarios/mamparas-digitales-l6-los-leones-5/modal,https://maps.oohpublicidad.cl/espacios-publicitarios/markers/marker-subway.png
e564c29b-011b-4291-ad6e-f3fd4977028b,Meta deportiva Inflable,-33.4488897,-70.6692655,meta-deportiva-inflable,,https://maps.oohpublicidad.cl/espacios-publicitarios/meta-deportiva-inflable/modal,https://maps.oohpublicidad.cl/espacios-publicitarios/markers/marker-misc.png
cebfdacf-ddf3-4fac-90d4-74bd962cd733,Nueva Providencia 2475 Los Leones A,-33.4196,-70.60494,nueva-providencia-2475-los-leones-mobiliario-urbano-digital-providencia,,https://maps.oohpublicidad.cl/espacios-publicitarios/nueva-providencia-2475-los-leones-mobiliario-urbano-digital-providencia/modal,https://maps.oohpublicidad.cl/espacios-publicitarios/markers/marker-shelter.png
4cf39c68-0290-4fc5-80cb-3e3c577298c7,1 Paleta Digital - L1 Estacion Universidad de Santiago,-33.45268,-70.68608,paleta-digital-l1-estacion-universidad-de-santiago-1-l1us3041a,,https://maps.oohpublicidad.cl/espacios-publicitarios/paleta-digital-l1-estacion-universidad-de-santiago-1-l1us3041a/modal,https://maps.oohpublicidad.cl/espacios-publicitarios/markers/marker-subway.png
f1700dcb-829a-4a66-95a6-301b77cbabcf,Puerta Barrera Control - L3 Estacion Cardenal Caro / 1 Caras,-33.3734874615328,-70.6860324301635,puerta-barrera-control-l3-estacion-cardenal-caro-1-caras,,https://maps.oohpublicidad.cl/espacios-publicitarios/puerta-barrera-control-l3-estacion-cardenal-caro-1-caras/modal,https://maps.oohpublicidad.cl/espacios-publicitarios/markers/marker-subway.png
b0bbc1ec-0b4c-4fa5-bf3d-84d1f58cfa56,4 Paleta Digital - L1 Estacion Los Leones,-33.42213277309983,-70.60882151460265,paleta-digital-l1-estacion-los-leones-2,,https://maps.oohpublicidad.cl/espacios-publicitarios/paleta-digital-l1-estacion-los-leones-2/modal,https://maps.oohpublicidad.cl/espacios-publicitarios/markers/marker-subway.png
11067421-74ae-44d8-b728-9d151e3431e8,Nueva Providencia fte. 1935 / Pedro de Valdivia ref. 2,-33.42521,-70.61301,nueva-providencia-fte-1935-pedro-de-valdivia-ref-2,,https://maps.oohpublicidad.cl/espacios-publicitarios/nueva-providencia-fte-1935-pedro-de-valdivia-ref-2/modal,https://maps.oohpublicidad.cl/espacios-publicitarios/markers/marker-shelter.png
16778ddc-809c-4040-8fc5-4449703420e3,Puertas Unidireccionales - L5 Estacion Las Parcelas,-33.47513,-70.74011,e-puertas-unidireccionales-l5-estacion-las-parcelas,,https://maps.oohpublicidad.cl/espacios-publicitarios/e-puertas-unidireccionales-l5-estacion-las-parcelas/modal,https://maps.oohpublicidad.cl/espacios-publicitarios/markers/marker-subway.png
4c044766-1bf6-4e2c-8415-3b0b787d47d6,Superior Ventana As-14 (Caf - Thales) - L3 Fernando Castillo Velasco - Los Libertadores / 79 Caras,-33.4521044507533,-70.5579216848083,superior-ventana-as-14-caf-thales-l3-fernando-castillo-velasco-los-libertadores-79-caras-4c044766-1bf6-4e2c-8415-3b0b787d47d6,,https://maps.oohpublicidad.cl/espacios-publicitarios/superior-ventana-as-14-caf-thales-l3-fernando-castillo-velasco-los-libertadores-79-caras-4c044766-1bf6-4e2c-8415-3b0b787d47d6/modal,https://maps.oohpublicidad.cl/espacios-publicitarios/markers/marker-subway.png
e6e74acb-f1cb-4aaa-ae67-5116c98c22e6,Torniquetes - L6 Estación Ñuble,-33.46719,-70.62519,torniquetes-l6-estacion-nuble,,https://maps.oohpublicidad.cl/espacios-publicitarios/torniquetes-l6-estacion-nuble/modal,https://maps.oohpublicidad.cl/espacios-publicitarios/markers/marker-subway.png
697f0233-ba53-4874-979c-55ebca329b2c,Juan XXIII - Rotonda Irene Frei,-33.39002699834212,-70.5722938201494,juan-xxiii-rotonda-irene-frei,,https://maps.oohpublicidad.cl/espacios-publicitarios/juan-xxiii-rotonda-irene-frei/modal,https://maps.oohpublicidad.cl/espacios-publicitarios/markers/marker-digital.png
3dff7f8d-0a0b-48c3-b871-82c4b27bf499,"Topsite 2 Camino Las Flores - Canchas de Entrenamiento,  Padel y Futbolito",-33.39731,-70.500328,totem-av-las-flores-n-2-acceso-a-canchas-de-padel-y-futbolito,,https://maps.oohpublicidad.cl/espacios-publicitarios/totem-av-las-flores-n-2-acceso-a-canchas-de-padel-y-futbolito/modal,https://maps.oohpublicidad.cl/espacios-publicitarios/markers/marker-billboard.png
65d1dda3-8164-4404-82bd-3d18324512fd,Topsite 4 Camino Las Flores  - Tenis Equitación Acceso a Club House,-33.396922,-70.497769,totem-av-las-flores-n-3b-acceso-a-club-house-desde-edificio-dptvo-uc,,https://maps.oohpublicidad.cl/espacios-publicitarios/totem-av-las-flores-n-3b-acceso-a-club-house-desde-edificio-dptvo-uc/modal,https://maps.oohpublicidad.cl/espacios-publicitarios/markers/marker-billboard.png
bc4efb6c-16cb-4911-90e3-7c3551622160,Cajas de Luz - Lider Express Cuarto Centenario (1),-33.4187,-70.5522,cajas-de-luz-lider-express-cuarto-centenario-licc0004a,,https://maps.oohpublicidad.cl/espacios-publicitarios/cajas-de-luz-lider-express-cuarto-centenario-licc0004a/modal,https://maps.oohpublicidad.cl/espacios-publicitarios/markers/marker-supermarket.png
0d444ab7-5e50-4813-944a-c9d6c7c32a17,Barreras Estacionamiento - Nivel -1 y -2 - Mall Costanera Center,-33.4177448,-70.6065351,barreras-estacionamiento-nivel-1-y-2-mall-costanera-center-centro-comercial-letrero-publicitario,,https://maps.oohpublicidad.cl/espacios-publicitarios/barreras-estacionamiento-nivel-1-y-2-mall-costanera-center-centro-comercial-letrero-publicitario/modal,https://maps.oohpublicidad.cl/espacios-publicitarios/markers/marker-mall.png
483f338d-ca3c-40a2-aa09-118608e7266a,Nueva Providencia fte. 2372 / Los Leones ref. 2,-33.4202,-70.60632,nueva-providencia-fte-2372-los-leones-ref-2,,https://maps.oohpublicidad.cl/espacios-publicitarios/nueva-providencia-fte-2372-los-leones-ref-2/modal,https://maps.oohpublicidad.cl/espacios-publicitarios/markers/marker-shelter.png
d11181c0-581a-4cf2-8ff5-328bf556c552,1 Paleta Digital - L1 Estacion Santa Lucia,-33.44021,-70.64055,1-paleta-digital-estacion-santa-lucia-l1,,https://maps.oohpublicidad.cl/espacios-publicitarios/1-paleta-digital-estacion-santa-lucia-l1/modal,https://maps.oohpublicidad.cl/espacios-publicitarios/markers/marker-subway.png
2f0d36b7-df84-4c5e-9ce9-7eb901a455bf,1 Gran Digital - L1 Estacion Pedro de Valdivia,-33.42496687791968,-70.61397672032932,los-leones-av-nueva-providencia-providencia-region-metropolitana-chile,,https://maps.oohpublicidad.cl/espacios-publicitarios/los-leones-av-nueva-providencia-providencia-region-metropolitana-chile/modal,https://maps.oohpublicidad.cl/espacios-publicitarios/markers/marker-subway.png
2b7028e4-b73f-4425-94ef-9812d6b6b4c9,8 Panel Digital - L1 Estacion Tobalaba,-33.41806,-70.60149,8-panel-digital-estacion-tobalaba-l1,,https://maps.oohpublicidad.cl/espacios-publicitarios/8-panel-digital-estacion-tobalaba-l1/modal,https://maps.oohpublicidad.cl/espacios-publicitarios/markers/marker-subway.png
6a4fd2c7-0f26-44a3-903a-4fefb7715676,1 Paleta Digital - L5 Estacion Baquedano,-33.43707,-70.63335,paleta-digital-l5-estacion-baquedano-1,,https://maps.oohpublicidad.cl/espacios-publicitarios/paleta-digital-l5-estacion-baquedano-1/modal,https://maps.oohpublicidad.cl/espacios-publicitarios/markers/marker-subway.png
8754dbec-c0cf-42a2-bd2d-7efe4c5f067e,Circuito Multicomunas - 50 caras - La Reina - Providencia - Santiago - Lo Barnechea - Las Condes,-33.438109,-70.568868,circuito-multicomunas-50-caras-la-reina-providencia-santiago-lo-barnechea-las-condes,,https://maps.oohpublicidad.cl/espacios-publicitarios/circuito-multicomunas-50-caras-la-reina-providencia-santiago-lo-barnechea-las-condes/modal,https://maps.oohpublicidad.cl/espacios-publicitarios/markers/marker-shelter.png
722695ab-e13a-470c-bf57-f20e893ec5d2,1 Paneles - L2 Estacion Cementerio,-33.4140912877551,-70.643567369606,cementerios-recoleta-region-metropolitana-chile,,https://maps.oohpublicidad.cl/espacios-publicitarios/cementerios-recoleta-region-metropolitana-chile/modal,https://maps.oohpublicidad.cl/espacios-publicitarios/markers/marker-subway.png
df6076cc-e68a-41ca-8c0c-ab1ccc54ab94,Led - En Pilar - Interior Nivel Planta Baja Escaleras Principales - Casa Costanera (1),-33.3983,-70.6007,pantalla-digital-en-pilar-interior-nivel-planta-baja-escaleras-principales-casa-costanera,,https://maps.oohpublicidad.cl/espacios-publicitarios/pantalla-digital-en-pilar-interior-nivel-planta-baja-escaleras-principales-casa-costanera/modal,https://maps.oohpublicidad.cl/espacios-publicitarios/markers/marker-mall.png
0d8b1993-983a-4155-a666-af06bd05a6d5,"AUTOPISTA VESPUCIO NORTE DIRECCIONAL A AUTOPISTA CENTRAL Y EL CORTIJO, DESDE QUILICURA",-33.37328,-70.725991,autopista-vespucio-norte-direccional-a-autopista-central-y-el-cortijo-desde-quilicura-km-38,,https://maps.oohpublicidad.cl/espacios-publicitarios/autopista-vespucio-norte-direccional-a-autopista-central-y-el-cortijo-desde-quilicura-km-38/modal,https://maps.oohpublicidad.cl/espacios-publicitarios/markers/marker-billboard.png
607d8bf5-2257-4967-bdec-70a99230b3e1,1 Monumental Digital - L1 Estacion Manuel Montt,-33.42834562558031,-70.61921656497344,1-monumental-digital-estacion-manuel-montt-l1,,https://maps.oohpublicidad.cl/espacios-publicitarios/1-monumental-digital-estacion-manuel-montt-l1/modal,https://maps.oohpublicidad.cl/espacios-publicitarios/markers/marker-subway.png
a6741f14-2607-4fe1-b34d-11e07aa97aab,Led - Unimarc Vitacura Vespucio (1),-33.3984,-70.5865,video-wall-unimarc-vitacura-vespucio,,https://maps.oohpublicidad.cl/espacios-publicitarios/video-wall-unimarc-vitacura-vespucio/modal,https://maps.oohpublicidad.cl/espacios-publicitarios/markers/marker-supermarket.png
8af4d139-4552-468b-8856-d61eb1c9d4a8,Puertas Unidireccionales - L4 Estacion Los Presidentes,-33.47959,-70.57869,e-puertas-unidireccionales-l4-estacion-los-presidentes,,https://maps.oohpublicidad.cl/espacios-publicitarios/e-puertas-unidireccionales-l4-estacion-los-presidentes/modal,https://maps.oohpublicidad.cl/espacios-publicitarios/markers/marker-subway.png
a5e4bab7-a5b9-4e45-b43c-9c4917063799,Cajas de Luz -  Unimarc Foodmarket Los Militares (1),-33.4039,-70.5691,cajas-de-luz-unimarc-foodmarket-los-militares-uflm0003a,,https://maps.oohpublicidad.cl/espacios-publicitarios/cajas-de-luz-unimarc-foodmarket-los-militares-uflm0003a/modal,https://maps.oohpublicidad.cl/espacios-publicitarios/markers/marker-supermarket.png
12d15dba-2034-4286-afc5-36ffff8b2447,Branding Escaleras Mecánicas / Nivel 1 a 2 / Mall Paseo Arauco Estación,-33.45221289999999,-70.67971039999999,branding-escaleras-mecanicas-nivel-1-a-2-mall-paseo-arauco-estacion-centro-comercial-escalera,,https://maps.oohpublicidad.cl/espacios-publicitarios/branding-escaleras-mecanicas-nivel-1-a-2-mall-paseo-arauco-estacion-centro-comercial-escalera/modal,https://maps.oohpublicidad.cl/espacios-publicitarios/markers/marker-mall.png
6c269080-67c8-49f8-8e69-1b79ee10cab9,Av. La Dehesa / Robles,-33.362086025976716,-70.51555377144165,av-la-dehesa-robles-mobiliario-urbano-digital,,https://maps.oohpublicidad.cl/espacios-publicitarios/av-la-dehesa-robles-mobiliario-urbano-digital/modal,https://maps.oohpublicidad.cl/espacios-publicitarios/markers/marker-shelter.png
621a1510-d994-4130-a956-f7d11d6b14a0,100 Carros / Hiper Lider Los Dominicos,-33.4019711,-70.51589539999999,100-carros-hiper-lider-los-dominicos,,https://maps.oohpublicidad.cl/espacios-publicitarios/100-carros-hiper-lider-los-dominicos/modal,https://maps.oohpublicidad.cl/espacios-publicitarios/markers/marker-supermarket.png
1ed7b7bc-fa5d-4887-9b16-106a2f4f0ebc,Led nivel 1- Mall Arauco Maipú,-33.482,-70.7532,led-nivel-1-mall-arauco-maipu,,https://maps.oohpublicidad.cl/espacios-publicitarios/led-nivel-1-mall-arauco-maipu/modal,https://maps.oohpublicidad.cl/espacios-publicitarios/markers/marker-mall.png
c9a7f238-628f-43b0-814b-6762c7d7c2ee,Building - Apoquindo con Alonso de Cordova,-33.410625336094824,-70.57427944893494,building-apoquindo-con-alonso-de-cordova,,https://maps.oohpublicidad.cl/espacios-publicitarios/building-apoquindo-con-alonso-de-cordova/modal,https://maps.oohpublicidad.cl/espacios-publicitarios/markers/marker-billboard.png
2a7c2f20-3d9b-45e1-a167-e8ff09691f2f,(03) Bicicletas con paleta publicitaria - Santiago,-33.413647853776546,-70.58266233532714,03-bicicletas-con-paleta-publicitaria-santiago,,https://maps.oohpublicidad.cl/espacios-publicitarios/03-bicicletas-con-paleta-publicitaria-santiago/modal,https://maps.oohpublicidad.cl/espacios-publicitarios/markers/marker-misc.png
a0a6cd37-7493-4c59-aeaf-769fea1782ee,Muro Nº 1 - L1 Estacion Los Leones,-33.42213277309983,-70.60882151460265,muro-n-1-l1-estacion-los-leones,,https://maps.oohpublicidad.cl/espacios-publicitarios/muro-n-1-l1-estacion-los-leones/modal,https://maps.oohpublicidad.cl/espacios-publicitarios/markers/marker-subway.png
f077b813-8176-4d52-b1c5-8cf7fc2eb37b,Sánchez Fontecilla / Las Parcelas - Peñalolén,-33.47037469666964,-70.55226388647856,sanchez-fontecilla-las-parcelas-penalolen,,https://maps.oohpublicidad.cl/espacios-publicitarios/sanchez-fontecilla-las-parcelas-penalolen/modal,https://maps.oohpublicidad.cl/espacios-publicitarios/markers/marker-billboard.png
1c30cb8d-5ab1-446f-8fad-4fe116b74487,Avenida Las Parcelas / Las Torres - Peñalolén,-33.47476754249814,-70.52675454678587,av-las-parcelas-av-las-torres-penalolen,,https://maps.oohpublicidad.cl/espacios-publicitarios/av-las-parcelas-av-las-torres-penalolen/modal,https://maps.oohpublicidad.cl/espacios-publicitarios/markers/marker-billboard.png
cafc19a2-a032-4ee3-b9bf-bc5c430c27c5,Avenida Consistorial con nueva Quilin- Peñalolén,-33.4937229758189,-70.55081760437855,avenida-consistorial-con-nueva-quilin-penanolen,,https://maps.oohpublicidad.cl/espacios-publicitarios/avenida-consistorial-con-nueva-quilin-penanolen/modal,https://maps.oohpublicidad.cl/espacios-publicitarios/markers/marker-billboard.png
8f3c0135-afa3-43a7-bbfb-3667f2d0d31a,Avenida Grecia / Sánchez Foncetilla Cara Poniente,-33.47353155735906,-70.55441038286978,av-grecia-sanchez-fontecilla-cara-poniente,,https://maps.oohpublicidad.cl/espacios-publicitarios/av-grecia-sanchez-fontecilla-cara-poniente/modal,https://maps.oohpublicidad.cl/espacios-publicitarios/markers/marker-billboard.png
76ea457d-127a-476e-87a6-057280ff5ae1,Cajas de Luz -  Interior Acceso Mall - Parque Arauco (1),-33.4024,-70.5799,caja-de-luz-interior-acceso-mall-parque-arauco,,https://maps.oohpublicidad.cl/espacios-publicitarios/caja-de-luz-interior-acceso-mall-parque-arauco/modal,https://maps.oohpublicidad.cl/espacios-publicitarios/markers/marker-mall.png
9815484a-7678-4b0f-88e7-4f41c67dea26,Cajas de Luz - Interior Acceso Estacionamiento Nivel -1 - Costanera Center (1),-33.418,-70.6086,caja-de-luz-interior-acceso-estacionamiento-nivel-1-costanera-center,,https://maps.oohpublicidad.cl/espacios-publicitarios/caja-de-luz-interior-acceso-estacionamiento-nivel-1-costanera-center/modal,https://maps.oohpublicidad.cl/espacios-publicitarios/markers/marker-mall.png
095534db-fa30-4430-8e6c-3c7de3356633,1 Paneles - L1 Estacion Santa Lucia,-33.44021,-70.64055,paneles-l1-estacion-santa-lucia-1-l1sl1005a,,https://maps.oohpublicidad.cl/espacios-publicitarios/paneles-l1-estacion-santa-lucia-1-l1sl1005a/modal,https://maps.oohpublicidad.cl/espacios-publicitarios/markers/marker-subway.png
8248fa2a-d9fa-4953-8b8a-55300741bdaf,Cajas de Luz - Hiper Lider Maipu (1),-33.4807,-70.7469,cajas-de-luz-hiper-lider-maipu-lima0013a,,https://maps.oohpublicidad.cl/espacios-publicitarios/cajas-de-luz-hiper-lider-maipu-lima0013a/modal,https://maps.oohpublicidad.cl/espacios-publicitarios/markers/marker-supermarket.png
6abec813-f3ed-4752-b6e0-51de40a4e6ef,Cajas de Luz -  Interior Estacionamiento Subterráneo Nivel -01 - Arauco Maipú (1),-33.482,-70.7532,caja-de-luz-interior-estacionamiento-subterraneo-nivel-01-arauco-maipu,,https://maps.oohpublicidad.cl/espacios-publicitarios/caja-de-luz-interior-estacionamiento-subterraneo-nivel-01-arauco-maipu/modal,https://maps.oohpublicidad.cl/espacios-publicitarios/markers/marker-mall.png
34c985f8-191c-47bb-9df8-46e48814b5aa,Cajas de Luz - Mall Parque Arauco (1),-33.4022,-70.5781,cajas-de-luz-paar0010a,,https://maps.oohpublicidad.cl/espacios-publicitarios/cajas-de-luz-paar0010a/modal,https://maps.oohpublicidad.cl/espacios-publicitarios/markers/marker-mall.png
eafc703f-beb9-48a6-8909-17b214b445da,Manquehue 118 - Alonso de Córdova,-33.407759,-70.567768,manquehue-118-alonso-de-cordova,,https://maps.oohpublicidad.cl/espacios-publicitarios/manquehue-118-alonso-de-cordova/modal,https://maps.oohpublicidad.cl/espacios-publicitarios/markers/marker-shelter.png
066d8d20-a322-4f56-b8a1-216c5117f963,1 Paneles - L2 Estacion Rondizzoni,-33.46977,-70.6563,paneles-l2-estacion-rondizzoni-1-l2rd1003a,,https://maps.oohpublicidad.cl/espacios-publicitarios/paneles-l2-estacion-rondizzoni-1-l2rd1003a/modal,https://maps.oohpublicidad.cl/espacios-publicitarios/markers/marker-subway.png
62831a4c-cf71-4c3b-a14b-1fa23d966836,1 Totem Digital Unifaz - L1 Estacion Alberto Hurtado,-33.45388,-70.69237,totem-digital-unifaz-l1-estacion-alberto-hurtado-1,,https://maps.oohpublicidad.cl/espacios-publicitarios/totem-digital-unifaz-l1-estacion-alberto-hurtado-1/modal,https://maps.oohpublicidad.cl/espacios-publicitarios/markers/marker-subway.png
e5052222-8f3c-4e4e-8eec-de2dc8691024,1 Paneles - L1 Estacion Central,-33.45125,-70.67906,paneles-l1-estacion-central-1-l1ec1008a,,https://maps.oohpublicidad.cl/espacios-publicitarios/paneles-l1-estacion-central-1-l1ec1008a/modal,https://maps.oohpublicidad.cl/espacios-publicitarios/markers/marker-subway.png
e3d17c0e-bb47-4420-8a36-2b58b41acc22,1 Paneles - L1 Estacion Santa Lucia,-33.44021,-70.64055,paneles-l1-estacion-santa-lucia-1-l1sl1004a,,https://maps.oohpublicidad.cl/espacios-publicitarios/paneles-l1-estacion-santa-lucia-1-l1sl1004a/modal,https://maps.oohpublicidad.cl/espacios-publicitarios/markers/marker-subway.png
41409744-600c-43cc-8746-89d7d285a2c7,1 Paneles - L5 Estacion Blanqueado,-33.44099,-70.70675,paneles-l5-estacion-blanqueado-1,,https://maps.oohpublicidad.cl/espacios-publicitarios/paneles-l5-estacion-blanqueado-1/modal,https://maps.oohpublicidad.cl/espacios-publicitarios/markers/marker-subway.png
ff7dcdca-bacb-439c-bd5a-2ad075f06668,Muro Nº 6 - L1 Estación Baquedano,-33.43739812429799,-70.63498912170408,muro-n-6-l1-estacion-baquedano,,https://maps.oohpublicidad.cl/espacios-publicitarios/muro-n-6-l1-estacion-baquedano/modal,https://maps.oohpublicidad.cl/espacios-publicitarios/markers/marker-subway.png
9315af7e-0051-421b-9004-b534c117cad1,Puerta Barrera Control - L3 Estacion Villa Frei / 1 Caras,-33.4546501843648,-70.5810149338684,puerta-barrera-control-l3-estacion-villa-frei-1-caras,,https://maps.oohpublicidad.cl/espacios-publicitarios/puerta-barrera-control-l3-estacion-villa-frei-1-caras/modal,https://maps.oohpublicidad.cl/espacios-publicitarios/markers/marker-subway.png
4d0cef1c-d62d-4710-9bb0-237dccdda0a4,1 Tótem Digital Unifaz - L5 Estación Quinta Normal,-33.4405051,-70.68007260000002,1-totem-digital-unifaz-l5-estacion-quinta-normal,,https://maps.oohpublicidad.cl/espacios-publicitarios/1-totem-digital-unifaz-l5-estacion-quinta-normal/modal,https://maps.oohpublicidad.cl/espacios-publicitarios/markers/marker-subway.png
65938a4e-05e7-4a29-a7d4-c50108a1d957,Interior Tren Ns-93 (8) (Boa) - L1 San Pablo - Los Dominicos / 1 Caras,-33.44422,-70.7233,interior-tren-ns-93-8-boa-l1-san-pablo-los-dominicos-1-caras-metro-tren-santiago,,https://maps.oohpublicidad.cl/espacios-publicitarios/interior-tren-ns-93-8-boa-l1-san-pablo-los-dominicos-1-caras-metro-tren-santiago/modal,https://maps.oohpublicidad.cl/espacios-publicitarios/markers/marker-subway.png
a10e87ab-d930-4abb-8815-65d660897df6,Cajas de Luz -  Unimarc Foodmarket La Florida (1),-33.51394125529664,-70.60718026242675,cajas-de-luz-unimarc-foodmarket-la-florida-uflf0003a,,https://maps.oohpublicidad.cl/espacios-publicitarios/cajas-de-luz-unimarc-foodmarket-la-florida-uflf0003a/modal,https://maps.oohpublicidad.cl/espacios-publicitarios/markers/marker-supermarket.png
993c076b-c2df-4c8d-ac52-2c411857cf88,1 Paneles - L4 Estacion Bilbao,-33.43113,-70.58499,paneles-l4-estacion-bilbao-1-l4bb1004a,,https://maps.oohpublicidad.cl/espacios-publicitarios/paneles-l4-estacion-bilbao-1-l4bb1004a/modal,https://maps.oohpublicidad.cl/espacios-publicitarios/markers/marker-subway.png
1c93e73d-fdd6-42da-99b6-9f8535f3e3c7,Muro  N° 4B / L4 Estación Tobalaba,-33.4182887,-70.60149369999999,muro-n-4b-l4-estacion-tobalaba,,https://maps.oohpublicidad.cl/espacios-publicitarios/muro-n-4b-l4-estacion-tobalaba/modal,https://maps.oohpublicidad.cl/espacios-publicitarios/markers/marker-subway.png
e9a09c7c-9970-41e1-8cb8-36054b5c40e2,Led - Paseo Ahumada (1),-33.44194823055441,-70.65068385618243,led-paseo-ahumada-1-gdph0001a,,https://maps.oohpublicidad.cl/espacios-publicitarios/led-paseo-ahumada-1-gdph0001a/modal,https://maps.oohpublicidad.cl/espacios-publicitarios/markers/marker-digital.png
4037a3b2-dea5-48bb-9beb-50d4a8db2dd7,3 Paleta Digital  - L1 Estación San Pablo,-33.44422,-70.7233,3-paleta-digital-l1-estacion-san-pablo,,https://maps.oohpublicidad.cl/espacios-publicitarios/3-paleta-digital-l1-estacion-san-pablo/modal,https://maps.oohpublicidad.cl/espacios-publicitarios/markers/marker-subway.png
e65ac057-6a6c-4ffa-83c4-73a1c5ecf52e,15 Panel Trio Digital - L2 Estacion Franklin,-33.47573,-70.64945,panel-trio-digital-l2-estacion-franklin-15,,https://maps.oohpublicidad.cl/espacios-publicitarios/panel-trio-digital-l2-estacion-franklin-15/modal,https://maps.oohpublicidad.cl/espacios-publicitarios/markers/marker-subway.png
0843e5d1-8651-425e-b4d6-6af6abe3df6f,100 Carros / Hiper Lider Quilicura,-33.35604,-70.72817,100-carros-hiper-lider-quilicura,,https://maps.oohpublicidad.cl/espacios-publicitarios/100-carros-hiper-lider-quilicura/modal,https://maps.oohpublicidad.cl/espacios-publicitarios/markers/marker-supermarket.png
106040bc-dfe2-4603-85a9-f71e72429762,1 Paneles - L1 Estacion Union Latinoamericana,-33.44929,-70.67317,av-libertador-bernardo-o-higgins-2833-santiago-region-metropolitana-chile,,https://maps.oohpublicidad.cl/espacios-publicitarios/av-libertador-bernardo-o-higgins-2833-santiago-region-metropolitana-chile/modal,https://maps.oohpublicidad.cl/espacios-publicitarios/markers/marker-subway.png
0fcf9eb5-1c11-4ad3-9a45-e2749e1230e4,1 Paneles - L1 Estacion Alcantara,-33.41513,-70.58948,paneles-l1-estacion-alcantara-1-l1al1009a,,https://maps.oohpublicidad.cl/espacios-publicitarios/paneles-l1-estacion-alcantara-1-l1al1009a/modal,https://maps.oohpublicidad.cl/espacios-publicitarios/markers/marker-subway.png
a6de852f-5ccd-48fe-96a0-faddf4fd0998,1 Paneles - L5 Estacion Barrancas,-33.45245,-70.73904,paneles-l5-estacion-barrancas-1-l5br1003a,,https://maps.oohpublicidad.cl/espacios-publicitarios/paneles-l5-estacion-barrancas-1-l5br1003a/modal,https://maps.oohpublicidad.cl/espacios-publicitarios/markers/marker-subway.png
4fe3eccd-9d31-470c-8b76-b683a2c80b8d,Superior Ventana As-02 (Alstom) - L4 Plaza Puente Alto - Tobalaba / 46 Caras,-33.4182887,-70.6014936999999,superior-ventana-as-02-alstom-l4-plaza-puente-alto-tobalaba-46-caras-4fe3eccd-9d31-470c-8b76-b683a2c80b8d,,https://maps.oohpublicidad.cl/espacios-publicitarios/superior-ventana-as-02-alstom-l4-plaza-puente-alto-tobalaba-46-caras-4fe3eccd-9d31-470c-8b76-b683a2c80b8d/modal,https://maps.oohpublicidad.cl/espacios-publicitarios/markers/marker-subway.png
d42f34f3-e0f9-42df-8ee7-59badfcf80c8,1 Paneles - L5 Estacion Gruta de Lourdes,-33.43805,-70.69097,paneles-l5-estacion-gruta-de-lourdes-1-l5gl1004a,,https://maps.oohpublicidad.cl/espacios-publicitarios/paneles-l5-estacion-gruta-de-lourdes-1-l5gl1004a/modal,https://maps.oohpublicidad.cl/espacios-publicitarios/markers/marker-subway.png
19fa125c-1cca-4dc3-9f10-0dfd28b3809f,Boleteria - L1 Estacion Los Leones / 1 Caras,-33.4221376360143,-70.6084499195739,boleteria-l1-estacion-los-leones-1-caras,,https://maps.oohpublicidad.cl/espacios-publicitarios/boleteria-l1-estacion-los-leones-1-caras/modal,https://maps.oohpublicidad.cl/espacios-publicitarios/markers/marker-subway.png
29b3eb01-ec0b-4cd9-bf32-8d438dff40ac,Muro Asiento N°4 - L2 Estación Parque O´Higgins,-33.4625076,-70.65745369999999,muro-asiento-n-4-l2-estacion-parque-o-higgins,,https://maps.oohpublicidad.cl/espacios-publicitarios/muro-asiento-n-4-l2-estacion-parque-o-higgins/modal,https://maps.oohpublicidad.cl/espacios-publicitarios/markers/marker-subway.png
2f8b302d-02a0-4997-979f-071942b23d7d,Muro Asiento N°5 - L2 Estación Parque O´Higgins,-33.4606197,-70.6563025,muro-asiento-n-5-l2-estacion-parque-o-higgins,,https://maps.oohpublicidad.cl/espacios-publicitarios/muro-asiento-n-5-l2-estacion-parque-o-higgins/modal,https://maps.oohpublicidad.cl/espacios-publicitarios/markers/marker-subway.png
1c973723-c435-4cab-ad74-d95b91b16c04,Muro Andén No. 22B / L1 Estación Tobalaba,-33.4182887,-70.60149369999999,muro-anden-no-22b-l1-estacion-tobalaba,,https://maps.oohpublicidad.cl/espacios-publicitarios/muro-anden-no-22b-l1-estacion-tobalaba/modal,https://maps.oohpublicidad.cl/espacios-publicitarios/markers/marker-subway.png
e94086c8-5926-4886-9255-fe0eaf6ab1a8,Muro Tunel lado B - L1 Estacion Los Leones,-33.42213277309983,-70.60882151460265,muro-tunel-lado-b-l1-estacion-los-leones,,https://maps.oohpublicidad.cl/espacios-publicitarios/muro-tunel-lado-b-l1-estacion-los-leones/modal,https://maps.oohpublicidad.cl/espacios-publicitarios/markers/marker-subway.png
830baf86-1dd5-4f18-8b0c-3da9bed2a3ee,1 Paneles - L1 Estacion Santa Lucia,-33.44021,-70.64055,paneles-l1-estacion-santa-lucia-1-l1sl1011a,,https://maps.oohpublicidad.cl/espacios-publicitarios/paneles-l1-estacion-santa-lucia-1-l1sl1011a/modal,https://maps.oohpublicidad.cl/espacios-publicitarios/markers/marker-subway.png
50050681-7811-4256-8704-4ea370720850,1 Paneles - L5 Estacion Parque Bustamante,-33.44271,-70.63175,paneles-l5-estacion-parque-bustamante-1-l5pb1003a,,https://maps.oohpublicidad.cl/espacios-publicitarios/paneles-l5-estacion-parque-bustamante-1-l5pb1003a/modal,https://maps.oohpublicidad.cl/espacios-publicitarios/markers/marker-subway.png
2d927264-21bd-499b-bb64-64508b0eb729,1 Tótem Digital Unifaz - L2 Estación Patronato,-33.42963,-70.64706,1-totem-digital-unifaz-l2-estacion-patronato,,https://maps.oohpublicidad.cl/espacios-publicitarios/1-totem-digital-unifaz-l2-estacion-patronato/modal,https://maps.oohpublicidad.cl/espacios-publicitarios/markers/marker-subway.png
d57afe31-407b-4562-a390-8a4ccca62740,2 Pantallas Digitales - Manquehue - Kennedy Oriente/Poniente (T1),-33.39790204342071,-70.57108795436106,2-pantallas-digitales-manquehue-kennedy-oriente-poniente-t1,,https://maps.oohpublicidad.cl/espacios-publicitarios/2-pantallas-digitales-manquehue-kennedy-oriente-poniente-t1/modal,https://maps.oohpublicidad.cl/espacios-publicitarios/markers/marker-digital.png
6612c60d-5779-4834-a9e9-ee7235932fa4,Alameda (Bandejón central) 3529 / Obispo Umaña (Hacia Maipú),-33.4521,-70.6839,alameda-bandejon-central-3529-obispo-umana-hacia-maipu,,https://maps.oohpublicidad.cl/espacios-publicitarios/alameda-bandejon-central-3529-obispo-umana-hacia-maipu/modal,https://maps.oohpublicidad.cl/espacios-publicitarios/markers/marker-billboard.png
b59b4063-2921-4770-a37f-83bec32ef374,Interior Tren Ns-07 (9) (Caf) (Lateral Puerta Entre Carros) - L1 San Pablo - Los Dominicos / 1 Caras,-33.44422,-70.7233,interior-tren-ns-07-9-caf-lateral-puerta-entre-carros-l1-san-pablo-los-dominicos-1-caras-b59b4063-2921-4770-a37f-83bec32ef374,,https://maps.oohpublicidad.cl/espacios-publicitarios/interior-tren-ns-07-9-caf-lateral-puerta-entre-carros-l1-san-pablo-los-dominicos-1-caras-b59b4063-2921-4770-a37f-83bec32ef374/modal,https://maps.oohpublicidad.cl/espacios-publicitarios/markers/marker-subway.png
b01f2288-22a5-4df3-8f91-d8878413bf8c,Valla 4  República de Honduras acceso UDD y Estadio Claro Arena,-33.394105,-70.500732,acceso-a-edificio-dptvo-y-claro-arena-por-republica-de-honduras-valla-4,,https://maps.oohpublicidad.cl/espacios-publicitarios/acceso-a-edificio-dptvo-y-claro-arena-por-republica-de-honduras-valla-4/modal,https://maps.oohpublicidad.cl/espacios-publicitarios/markers/marker-billboard.png
a57c3129-4bc2-444d-b83d-afdc542c7a68,El Golf fte. al 171 - Plaza Loreto,-33.414261,-70.592407,el-golf-fte-al-171-plaza-loreto,,https://maps.oohpublicidad.cl/espacios-publicitarios/el-golf-fte-al-171-plaza-loreto/modal,https://maps.oohpublicidad.cl/espacios-publicitarios/markers/marker-shelter.png
dca259cb-9a04-4fe8-ae91-9b05dcd838f4,Apoquindo 2705 - Tobalaba fte. Banco BCI,-33.41838,-70.601243,apoquindo-2705-tobalaba-fte-banco-bci,,https://maps.oohpublicidad.cl/espacios-publicitarios/apoquindo-2705-tobalaba-fte-banco-bci/modal,https://maps.oohpublicidad.cl/espacios-publicitarios/markers/marker-shelter.png
7eaab955-bead-41ea-b108-986ddd74659b,Nueva Tajamar 263,-33.417216,-70.604299,nueva-tajamar-263-kiosko,,https://maps.oohpublicidad.cl/espacios-publicitarios/nueva-tajamar-263-kiosko/modal,https://maps.oohpublicidad.cl/espacios-publicitarios/markers/marker-shelter.png
6e600361-a751-4beb-bb39-42676163ddb1,Apoquindo 3230 - Regidor,-33.416738,-70.595927,apoquindo-3230-regidor,,https://maps.oohpublicidad.cl/espacios-publicitarios/apoquindo-3230-regidor/modal,https://maps.oohpublicidad.cl/espacios-publicitarios/markers/marker-shelter.png
12fcfc40-90b0-4598-b18c-126960502103,Tobalaba 34 - Apoquindo,-33.41818,-70.601079,tobalaba-34-apoquindo,,https://maps.oohpublicidad.cl/espacios-publicitarios/tobalaba-34-apoquindo/modal,https://maps.oohpublicidad.cl/espacios-publicitarios/markers/marker-shelter.png
85164e85-d090-4ee2-870c-5e6413975034,Alcántara 3902 - Colón,-33.424951,-70.585863,alcantara-3902-colon,,https://maps.oohpublicidad.cl/espacios-publicitarios/alcantara-3902-colon/modal,https://maps.oohpublicidad.cl/espacios-publicitarios/markers/marker-shelter.png
42968bdf-820a-42f5-8b91-0b013267f0e1,Cristobal Colón 4201 - Flandes,-33.424016,-70.581604,cristobal-colon-4201-flandes,,https://maps.oohpublicidad.cl/espacios-publicitarios/cristobal-colon-4201-flandes/modal,https://maps.oohpublicidad.cl/espacios-publicitarios/markers/marker-shelter.png
58410233-3bdd-44ab-8fa3-1782f06aa1ed,Apoquindo 4383 - Americo Vespucio Sur,-33.414325,-70.585329,apoquindo-4383-americo-vespucio-sur,,https://maps.oohpublicidad.cl/espacios-publicitarios/apoquindo-4383-americo-vespucio-sur/modal,https://maps.oohpublicidad.cl/espacios-publicitarios/markers/marker-shelter.png
6698e08a-6f32-4022-846a-03f4e8af8abe,Cerro La Parva fte al 998 - Alonso de Cordova,-33.404499,-70.586849,cerro-la-parva-fte-al-998-alonso-de-cordova,,https://maps.oohpublicidad.cl/espacios-publicitarios/cerro-la-parva-fte-al-998-alonso-de-cordova/modal,https://maps.oohpublicidad.cl/espacios-publicitarios/markers/marker-shelter.png
4b7bf5ff-0d1b-4611-ad56-5eac3527891c,Apoquindo 4524 - Gral. Barceló,-33.413913,-70.58283,apoquindo-4524-gral-barcelo,,https://maps.oohpublicidad.cl/espacios-publicitarios/apoquindo-4524-gral-barcelo/modal,https://maps.oohpublicidad.cl/espacios-publicitarios/markers/marker-shelter.png
f6f9e4ab-32c4-4f93-894d-9cbc7e7a523f,Apoquindo 4775 - Coronel Pereira,-33.412514,-70.57981,apoquindo-4775-coronel-pereira,,https://maps.oohpublicidad.cl/espacios-publicitarios/apoquindo-4775-coronel-pereira/modal,https://maps.oohpublicidad.cl/espacios-publicitarios/markers/marker-shelter.png
b119f639-f6c3-4754-944c-2c128083b2c1,Cerro el Plomo  fte. 5630,-33.405239,-70.577999,cerro-el-plomo-fte-5630,,https://maps.oohpublicidad.cl/espacios-publicitarios/cerro-el-plomo-fte-5630/modal,https://maps.oohpublicidad.cl/espacios-publicitarios/markers/marker-shelter.png
f93624d2-d08d-4f65-aa8f-0419b3965a6b,Apoquindo 6089 - Mar de los Zargazos,-33.408939,-70.567544,apoquindo-6089-mar-de-los-zargazos,,https://maps.oohpublicidad.cl/espacios-publicitarios/apoquindo-6089-mar-de-los-zargazos/modal,https://maps.oohpublicidad.cl/espacios-publicitarios/markers/marker-shelter.png
a0e918bd-2e6f-4192-9e8c-547c028ce805,Apoquindo 6095 - Manquehue,-33.408939,-70.567428,apoquindo-6095-manquehue,,https://maps.oohpublicidad.cl/espacios-publicitarios/apoquindo-6095-manquehue/modal,https://maps.oohpublicidad.cl/espacios-publicitarios/markers/marker-shelter.png
72ec33c1-5a59-4466-a410-35585e2b89e8,Cerro El Plomo 6555 - Manquehue,-33.403734,-70.568554,cerro-el-plomo-6555-manquehue,,https://maps.oohpublicidad.cl/espacios-publicitarios/cerro-el-plomo-6555-manquehue/modal,https://maps.oohpublicidad.cl/espacios-publicitarios/markers/marker-shelter.png
173a01e7-1ec7-4b84-b920-ad9cff71b5c5,Los Militares  6932 - Nuestra Sra. Del Rosario,-33.401657,-70.560387,los-militares-6932-nuestra-sra-del-rosario,,https://maps.oohpublicidad.cl/espacios-publicitarios/los-militares-6932-nuestra-sra-del-rosario/modal,https://maps.oohpublicidad.cl/espacios-publicitarios/markers/marker-shelter.png
a236b34b-5356-4bb8-8b45-eaa503f8ed7e,Las Condes 7100,-33.404838,-70.558084,las-condes-7100-kiosko,,https://maps.oohpublicidad.cl/espacios-publicitarios/las-condes-7100-kiosko/modal,https://maps.oohpublicidad.cl/espacios-publicitarios/markers/marker-shelter.png
ae328618-ca4a-4016-b2b3-7d2cb2513541,Alejandro Flemming 7551 - Florencio Barrios,-33.425411,-70.555391,alejandro-flemming-7551-florencio-barrios,,https://maps.oohpublicidad.cl/espacios-publicitarios/alejandro-flemming-7551-florencio-barrios/modal,https://maps.oohpublicidad.cl/espacios-publicitarios/markers/marker-shelter.png
1fbe448f-49ff-46bf-a162-f993e8566c8c,Las Condes 8416 - Las Azaleas,-33.396661,-70.550217,las-condes-8416-las-azaleas,,https://maps.oohpublicidad.cl/espacios-publicitarios/las-condes-8416-las-azaleas/modal,https://maps.oohpublicidad.cl/espacios-publicitarios/markers/marker-shelter.png
2e1112f1-f113-47a2-aeeb-1d2d058823e0,Las Condes 8631 - Costado Hospital Fach,-33.39441,-70.548187,las-condes-8631-costado-hospital-fach,,https://maps.oohpublicidad.cl/espacios-publicitarios/las-condes-8631-costado-hospital-fach/modal,https://maps.oohpublicidad.cl/espacios-publicitarios/markers/marker-shelter.png
7b13be50-3064-4057-a1e1-5856bea83f78,Padre Hurtado 1580- Camino El Alba,-33.406224,-70.543235,padre-hurtado-1580-camino-el-alba,,https://maps.oohpublicidad.cl/espacios-publicitarios/padre-hurtado-1580-camino-el-alba/modal,https://maps.oohpublicidad.cl/espacios-publicitarios/markers/marker-shelter.png
54b3224a-3d9a-4f8e-ae36-4cf72fe07efa,Sánchez Fontecilla 901 - Martín de Zamora,-33.424582,-70.593277,sanchez-fontecilla-901-martin-de-zamora,,https://maps.oohpublicidad.cl/espacios-publicitarios/sanchez-fontecilla-901-martin-de-zamora/modal,https://maps.oohpublicidad.cl/espacios-publicitarios/markers/marker-shelter.png
d3a3f7b6-5a73-42ed-8708-bfd118728606,Camino El Alba 9198 - Paul Harris,-33.404906,-70.538707,camino-el-alba-9198-paul-harris,,https://maps.oohpublicidad.cl/espacios-publicitarios/camino-el-alba-9198-paul-harris/modal,https://maps.oohpublicidad.cl/espacios-publicitarios/markers/marker-shelter.png
18f61c62-1620-425f-9c1b-0b11cb54c81e,Alcántara - Pdte. Errázuriz,-33.42008,-70.588324,alcantara-pdte-errazuriz,,https://maps.oohpublicidad.cl/espacios-publicitarios/alcantara-pdte-errazuriz/modal,https://maps.oohpublicidad.cl/espacios-publicitarios/markers/marker-shelter.png
c26d909a-d708-454e-8c0d-bf13349fb821,Alejandro Fleming 7675 - Tomás Moro,-33.425372,-70.553395,alejandro-fleming-7675-tomas-moro,,https://maps.oohpublicidad.cl/espacios-publicitarios/alejandro-fleming-7675-tomas-moro/modal,https://maps.oohpublicidad.cl/espacios-publicitarios/markers/marker-shelter.png
1c219056-c0c5-49db-bc75-8c220a15041e,Superior Ventana As-02 (Alstom) - L4 Plaza Puente Alto - Tobalaba / 46 Caras,-33.4182887,-70.6014936999999,superior-ventana-as-02-alstom-l4-plaza-puente-alto-tobalaba-46-caras-1c219056-c0c5-49db-bc75-8c220a15041e,,https://maps.oohpublicidad.cl/espacios-publicitarios/superior-ventana-as-02-alstom-l4-plaza-puente-alto-tobalaba-46-caras-1c219056-c0c5-49db-bc75-8c220a15041e/modal,https://maps.oohpublicidad.cl/espacios-publicitarios/markers/marker-subway.png
010c0084-6349-41c5-ad93-5bae6281936c,Alejandro Fleming 7665 - Tomás Moro,-33.425381,-70.553342,alejandro-fleming-7665-tomas-moro,,https://maps.oohpublicidad.cl/espacios-publicitarios/alejandro-fleming-7665-tomas-moro/modal,https://maps.oohpublicidad.cl/espacios-publicitarios/markers/marker-shelter.png
9ad44273-ed6c-4456-b314-7217be7fa1c8,Alejandro Fleming  - Vital Apoquindo,-33.42406,-70.529712,alejandro-fleming-vital-apoquindo,,https://maps.oohpublicidad.cl/espacios-publicitarios/alejandro-fleming-vital-apoquindo/modal,https://maps.oohpublicidad.cl/espacios-publicitarios/markers/marker-shelter.png
ffa4d5bf-ac20-411c-98a0-ffa8431dfbf5,1 Totem Digital Unifaz - L1 Estacion Central,-33.45125,-70.67906,totem-digital-unifaz-l1-estacion-central-1-l1ec3051a,,https://maps.oohpublicidad.cl/espacios-publicitarios/totem-digital-unifaz-l1-estacion-central-1-l1ec3051a/modal,https://maps.oohpublicidad.cl/espacios-publicitarios/markers/marker-subway.png
affd02ee-cabe-4cc0-a2ad-7655cc05e69c,Américo Vespucio 1799 - Latadía (ex Manquehue 944),-33.428149,-70.564965,americo-vespucio-1799-latadia-ex-manquehue-944,,https://maps.oohpublicidad.cl/espacios-publicitarios/americo-vespucio-1799-latadia-ex-manquehue-944/modal,https://maps.oohpublicidad.cl/espacios-publicitarios/markers/marker-shelter.png
72f0ffee-61e4-45e8-b0bd-53170096e000,Apoquindo 3939 - Alcántara,-33.415428,-70.589473,apoquindo-3939-alcantara,,https://maps.oohpublicidad.cl/espacios-publicitarios/apoquindo-3939-alcantara/modal,https://maps.oohpublicidad.cl/espacios-publicitarios/markers/marker-shelter.png
406d2c01-8f44-4cd7-9c0f-3099bb302758,Apoquindo (bandejon) - Alonso de Cordova,-33.408634,-70.566468,apoquindo-bandejon-alonso-de-cordova,,https://maps.oohpublicidad.cl/espacios-publicitarios/apoquindo-bandejon-alonso-de-cordova/modal,https://maps.oohpublicidad.cl/espacios-publicitarios/markers/marker-shelter.png
7f75f83c-41d5-4679-90ac-5ceb7292bcb2,Apoquindo 3039 - Augusto Leguía Norte,-33.41724,-70.59777947428438,apoquindo-3039-augusto-leguia-norte,,https://maps.oohpublicidad.cl/espacios-publicitarios/apoquindo-3039-augusto-leguia-norte/modal,https://maps.oohpublicidad.cl/espacios-publicitarios/markers/marker-shelter.png
329dbf94-db94-4248-912c-e87cd4727d3c,Apoquindo 4499 - Cruz del Sur,-33.414022,-70.583181,apoquindo-4499-cruz-del-sur,,https://maps.oohpublicidad.cl/espacios-publicitarios/apoquindo-4499-cruz-del-sur/modal,https://maps.oohpublicidad.cl/espacios-publicitarios/markers/marker-shelter.png
dd36f583-5059-4eb8-ae02-cce54f1d1025,Apoquindo 3291 - San Crescente,-33.416673,-70.596155,apoquindo-3291-san-crescente,,https://maps.oohpublicidad.cl/espacios-publicitarios/apoquindo-3291-san-crescente/modal,https://maps.oohpublicidad.cl/espacios-publicitarios/markers/marker-shelter.png
ab956227-1b30-45c3-92fa-6e9db54c14a0,Apoquindo 6266 - Escandinavia,-33.408303,-70.566067,apoquindo-6266-escandinavia,,https://maps.oohpublicidad.cl/espacios-publicitarios/apoquindo-6266-escandinavia/modal,https://maps.oohpublicidad.cl/espacios-publicitarios/markers/marker-shelter.png
9c5ad117-c459-4fbc-8701-0c41c0be73dd,Apoquindo 4601 - Evaristo Lillo,-33.413331,-70.581823,apoquindo-4601-evaristo-lillo,,https://maps.oohpublicidad.cl/espacios-publicitarios/apoquindo-4601-evaristo-lillo/modal,https://maps.oohpublicidad.cl/espacios-publicitarios/markers/marker-shelter.png
0cedb818-abe5-487d-b04c-b712b741be16,Apoquindo 4551 - Félix de Amesti,-33.413913,-70.582631,apoquindo-4551-felix-de-amesti,,https://maps.oohpublicidad.cl/espacios-publicitarios/apoquindo-4551-felix-de-amesti/modal,https://maps.oohpublicidad.cl/espacios-publicitarios/markers/marker-shelter.png
67747420-32a6-4c3a-9fac-1637535cb7d5,General Barcelo - Apoquindo,-33.413739,-70.582988,general-barcelo-apoquindo,,https://maps.oohpublicidad.cl/espacios-publicitarios/general-barcelo-apoquindo/modal,https://maps.oohpublicidad.cl/espacios-publicitarios/markers/marker-shelter.png
6835f0ae-28be-4bef-9880-0ff9610a1ffb,Apoquindo 6949 - Carol Urzúa,-33.407641,-70.55834,apoquindo-6949-carol-urzua,,https://maps.oohpublicidad.cl/espacios-publicitarios/apoquindo-6949-carol-urzua/modal,https://maps.oohpublicidad.cl/espacios-publicitarios/markers/marker-shelter.png
240452dc-e59d-4d5a-8620-6df17225a1c9,Apoquindo 3795 - Gertrudis Echeñique,-33.415833,-70.591658,apoquindo-3795-gertrudis-echenique,,https://maps.oohpublicidad.cl/espacios-publicitarios/apoquindo-3795-gertrudis-echenique/modal,https://maps.oohpublicidad.cl/espacios-publicitarios/markers/marker-shelter.png
96aa1469-791f-4f56-826e-5a1999f66ee6,Apoquindo 4130 - Jean Mermoz,-33.415221,-70.587665,apoquindo-4130-jean-mermoz,,https://maps.oohpublicidad.cl/espacios-publicitarios/apoquindo-4130-jean-mermoz/modal,https://maps.oohpublicidad.cl/espacios-publicitarios/markers/marker-shelter.png
ee729925-bd79-4713-917c-17761d3e3d7d,Apoquindo 4935 - La Castellana,-33.411919,-70.576865,apoquindo-4935-la-castellana,,https://maps.oohpublicidad.cl/espacios-publicitarios/apoquindo-4935-la-castellana/modal,https://maps.oohpublicidad.cl/espacios-publicitarios/markers/marker-shelter.png
6c2dd0e3-36c3-4985-a19b-bbe4c6b8a35a,Apoquindo 5090 - La Gloria,-33.4112,-70.575833,apoquindo-5090-la-gloria,,https://maps.oohpublicidad.cl/espacios-publicitarios/apoquindo-5090-la-gloria/modal,https://maps.oohpublicidad.cl/espacios-publicitarios/markers/marker-shelter.png
8baeffdd-8a8c-4e0d-b3ce-9c8336ea169a,Apoquindo 5289 - Luis Zegers,-33.410623,-70.573247,apoquindo-5289-luis-zegers,,https://maps.oohpublicidad.cl/espacios-publicitarios/apoquindo-5289-luis-zegers/modal,https://maps.oohpublicidad.cl/espacios-publicitarios/markers/marker-shelter.png
457ba2aa-bd50-4636-a145-742088306a04,Apoquindo 8468 -  Salida Metro los Dominicos - Patagonia,-33.407722,-70.545478,apoquindo-8468-salida-metro-los-dominicos-patagonia,,https://maps.oohpublicidad.cl/espacios-publicitarios/apoquindo-8468-salida-metro-los-dominicos-patagonia/modal,https://maps.oohpublicidad.cl/espacios-publicitarios/markers/marker-shelter.png
dc01423c-e759-4971-97da-0aa3feb7830a,Apoquindo 7071 - Pehuén,-33.407791,-70.556627,apoquindo-7071-pehuen,,https://maps.oohpublicidad.cl/espacios-publicitarios/apoquindo-7071-pehuen/modal,https://maps.oohpublicidad.cl/espacios-publicitarios/markers/marker-shelter.png
1aadabbc-332c-4ba2-9713-d00630c2b4cc,1 Paneles - L3 Estacion Conchali,-33.39781,-70.66955,paneles-l3-estacion-conchali-1,,https://maps.oohpublicidad.cl/espacios-publicitarios/paneles-l3-estacion-conchali-1/modal,https://maps.oohpublicidad.cl/espacios-publicitarios/markers/marker-subway.png
c673edbc-aa6c-4902-90cc-be6c6e288d8f,Rosario Sur 29 - Apoquindo,-33.409802,-70.570365,rosario-sur-29-apoquindo,,https://maps.oohpublicidad.cl/espacios-publicitarios/rosario-sur-29-apoquindo/modal,https://maps.oohpublicidad.cl/espacios-publicitarios/markers/marker-shelter.png
e66eb820-ed62-4b6a-84b3-55bf846d9063,Apoquindo 4831 - Puerta del Sol,-33.412371,-70.581346,apoquindo-4831-puerta-del-sol,,https://maps.oohpublicidad.cl/espacios-publicitarios/apoquindo-4831-puerta-del-sol/modal,https://maps.oohpublicidad.cl/espacios-publicitarios/markers/marker-shelter.png
4e46d5bc-ffa6-40ad-9203-5efe17a6fa2f,Led - Pasillo Poniente D - Paseo Arauco Estación,-33.4522,-70.6825,led-pasillo-poniente-d-paseo-arauco-estacion,,https://maps.oohpublicidad.cl/espacios-publicitarios/led-pasillo-poniente-d-paseo-arauco-estacion/modal,https://maps.oohpublicidad.cl/espacios-publicitarios/markers/marker-mall.png
d635ec80-2626-4c9c-9bb6-dbab46394010,Apoquindo 2875 - Bosque Norte Frente Banco ITAÚ,-33.417678,-70.601354,apoquindo-2835-bosque-norte-frente-banco-itau,,https://maps.oohpublicidad.cl/espacios-publicitarios/apoquindo-2835-bosque-norte-frente-banco-itau/modal,https://maps.oohpublicidad.cl/espacios-publicitarios/markers/marker-shelter.png
d7f01665-fe3a-45c4-90f5-9968440603b5,1 Paneles - L4 Estacion Bilbao,-33.43113,-70.58499,paneles-l4-estacion-bilbao-1-l4bb1005a,,https://maps.oohpublicidad.cl/espacios-publicitarios/paneles-l4-estacion-bilbao-1-l4bb1005a/modal,https://maps.oohpublicidad.cl/espacios-publicitarios/markers/marker-subway.png
d4f942eb-e120-4b69-a47a-2aa2cffe96e8,Apoquindo 7477 - Tomas Moro,-33.408354,-70.552127,apoquindo-7477-tomas-moro,,https://maps.oohpublicidad.cl/espacios-publicitarios/apoquindo-7477-tomas-moro/modal,https://maps.oohpublicidad.cl/espacios-publicitarios/markers/marker-shelter.png
61773f5e-89e4-4ee0-8234-728e99916769,Puertas Unidireccionales - L1 Estacion Manuel Montt,-33.42805,-70.61919,e-puertas-unidireccionales-l1-estacion-manuel-montt,,https://maps.oohpublicidad.cl/espacios-publicitarios/e-puertas-unidireccionales-l1-estacion-manuel-montt/modal,https://maps.oohpublicidad.cl/espacios-publicitarios/markers/marker-subway.png
611587b9-6597-4c7c-97bd-387f027b9333,Superior Ventana As-14 (Caf - Thales) - L3 Fernando Castillo Velasco - Los Libertadores / 79 Caras,-33.4521044507533,-70.5579216848083,superior-ventana-as-14-caf-thales-l3-fernando-castillo-velasco-los-libertadores-79-caras-611587b9-6597-4c7c-97bd-387f027b9333,,https://maps.oohpublicidad.cl/espacios-publicitarios/superior-ventana-as-14-caf-thales-l3-fernando-castillo-velasco-los-libertadores-79-caras-611587b9-6597-4c7c-97bd-387f027b9333/modal,https://maps.oohpublicidad.cl/espacios-publicitarios/markers/marker-subway.png
21aeb5dc-da63-41ab-a6e2-5a8d3a336167,Apoquindo 2965 - Vecinal,-33.417224,-70.598925,apoquindo-2965-vecinal,,https://maps.oohpublicidad.cl/espacios-publicitarios/apoquindo-2965-vecinal/modal,https://maps.oohpublicidad.cl/espacios-publicitarios/markers/marker-shelter.png
194e13a2-dad1-4fca-b784-439ccb4218fc,Warren Smith 5190 - Apoquindo,-33.410668,-70.574258,warren-smith-5190-apoquindo,,https://maps.oohpublicidad.cl/espacios-publicitarios/warren-smith-5190-apoquindo/modal,https://maps.oohpublicidad.cl/espacios-publicitarios/markers/marker-shelter.png
c28172e9-c1f7-407e-ad03-9406acda657a,Apoquindo 3500 - Magdalena,-33.41613,-70.5934013046183,apoquindo-3500-magdalena,,https://maps.oohpublicidad.cl/espacios-publicitarios/apoquindo-3500-magdalena/modal,https://maps.oohpublicidad.cl/espacios-publicitarios/markers/marker-shelter.png
302bb5c7-60c2-42ad-a656-de5bab8050fc,Apoquindo 4820 - Orinoco,-33.412268,-70.578527,apoquindo-4820-orinoco,,https://maps.oohpublicidad.cl/espacios-publicitarios/apoquindo-4820-orinoco/modal,https://maps.oohpublicidad.cl/espacios-publicitarios/markers/marker-shelter.png
68d07468-a91f-43dd-b805-d81b03e06c99,Bocaccio 531 - Chesterton,-33.400729,-70.5476,bocaccio-531-chesterton,,https://maps.oohpublicidad.cl/espacios-publicitarios/bocaccio-531-chesterton/modal,https://maps.oohpublicidad.cl/espacios-publicitarios/markers/marker-shelter.png
e629b64a-a968-4c02-982f-cd1e580cbc4b,Kennedy 6376 - Brasilia,-33.396799,-70.56707,kennedy-6376-brasilia,,https://maps.oohpublicidad.cl/espacios-publicitarios/kennedy-6376-brasilia/modal,https://maps.oohpublicidad.cl/espacios-publicitarios/markers/marker-shelter.png
88b426ff-9f52-4d00-8b42-f30079851a18,Camino El Alba 11756 - Bulnes Correa,-33.401347,-70.51778,camino-el-alba-11756-bulnes-correa,,https://maps.oohpublicidad.cl/espacios-publicitarios/camino-el-alba-11756-bulnes-correa/modal,https://maps.oohpublicidad.cl/espacios-publicitarios/markers/marker-shelter.png
e57e7496-73e7-44da-8338-a7525ba2cf18,Camino Las Flores 12870 - Av. La Plaza,-33.396117,-70.506156,camino-las-flores-12870-av-la-plaza,,https://maps.oohpublicidad.cl/espacios-publicitarios/camino-las-flores-12870-av-la-plaza/modal,https://maps.oohpublicidad.cl/espacios-publicitarios/markers/marker-shelter.png
a6e91fca-ab07-4fb0-9bda-fab14da1f139,Camino El Alba 11865 costado Sport Life,-33.401246,-70.515294,camino-el-alba-11865-costado-sport-life,,https://maps.oohpublicidad.cl/espacios-publicitarios/camino-el-alba-11865-costado-sport-life/modal,https://maps.oohpublicidad.cl/espacios-publicitarios/markers/marker-shelter.png
4eb907fe-612b-4242-9e25-b6feed8c2c90,Led - Acceso E Cerro Colorado/ Entre Inalco Y Achs - Mall Parque Arauco (1),-33.40215760530828,-70.57824701991272,led-acceso-e-cerro-colorado-entre-inalco-y-achs-mall-parque-arauco,,https://maps.oohpublicidad.cl/espacios-publicitarios/led-acceso-e-cerro-colorado-entre-inalco-y-achs-mall-parque-arauco/modal,https://maps.oohpublicidad.cl/espacios-publicitarios/markers/marker-mall.png
17f75c1a-85d5-477a-8176-dfd2532211f3,Camino Alba 8468 - Apoquindo,-33.407405,-70.545031,camino-alba-8468-apoquindo,,https://maps.oohpublicidad.cl/espacios-publicitarios/camino-alba-8468-apoquindo/modal,https://maps.oohpublicidad.cl/espacios-publicitarios/markers/marker-shelter.png
78860ec0-3772-4f8c-bf59-53c097b431c1,Camino El Alba 12873 - Avenida Plaza,-33.399601,-70.506653,camino-el-alba-12873-avenida-plaza,,https://maps.oohpublicidad.cl/espacios-publicitarios/camino-el-alba-12873-avenida-plaza/modal,https://maps.oohpublicidad.cl/espacios-publicitarios/markers/marker-shelter.png
9e73325e-f76e-484f-889f-1f3d389badcf,Camino Otoñal 1581 - Camino El Alba,-33.401481,-70.519713,camino-otonal-1581-camino-el-alba,,https://maps.oohpublicidad.cl/espacios-publicitarios/camino-otonal-1581-camino-el-alba/modal,https://maps.oohpublicidad.cl/espacios-publicitarios/markers/marker-shelter.png
45c21011-906a-4fbd-87d1-398940e426d5,Cerro Colorado 5612 - Rosario Norte ( Costado Homecenter),-33.402277,-70.575187,cerro-colorado-5612-rosario-norte-costado-homecenter,,https://maps.oohpublicidad.cl/espacios-publicitarios/cerro-colorado-5612-rosario-norte-costado-homecenter/modal,https://maps.oohpublicidad.cl/espacios-publicitarios/markers/marker-shelter.png
abba834c-8ad0-46f7-b76f-f7b5cefce326,Presidente Riesco 5780 - Rosario Norte  (Ex -- Cerro El Plomo y Rosario Norte),-33.399162,-70.572609,presidente-riesco-5780-rosario-norte-ex-cerro-el-plomo-y-rosario-norte,,https://maps.oohpublicidad.cl/espacios-publicitarios/presidente-riesco-5780-rosario-norte-ex-cerro-el-plomo-y-rosario-norte/modal,https://maps.oohpublicidad.cl/espacios-publicitarios/markers/marker-shelter.png
c2114bfa-2a6d-45b5-9343-775011a25531,Chesterton 7720 - Apoquindo,-33.408292,-70.551686,chesterton-7720-apoquindo,,https://maps.oohpublicidad.cl/espacios-publicitarios/chesterton-7720-apoquindo/modal,https://maps.oohpublicidad.cl/espacios-publicitarios/markers/marker-shelter.png
ccbcbfb4-87f7-4542-8fd6-cd9872ab0598,Cerro Las Terrazas 1214 - Valle Nevado,-33.392491,-70.514929,cerro-las-terrazas-1214-valle-nevado,,https://maps.oohpublicidad.cl/espacios-publicitarios/cerro-las-terrazas-1214-valle-nevado/modal,https://maps.oohpublicidad.cl/espacios-publicitarios/markers/marker-shelter.png
85eeb1dc-905a-4e10-8b51-1eddcd716f70,Cristobal Colon 4401,-33.424974,-70.579186,cristobal-colon-4401-kiosko,,https://maps.oohpublicidad.cl/espacios-publicitarios/cristobal-colon-4401-kiosko/modal,https://maps.oohpublicidad.cl/espacios-publicitarios/markers/marker-shelter.png
1cf00d9f-97f4-4c0f-ba7d-1d7803c059d6,Apoquindo - Mar de los Zargazos O-P (ex-Cristobal Colón - Manquehue Sur),-33.409337,-70.564677,apoquindo-mar-de-los-zargazos-o-p-ex-cristobal-colon-manquehue-sur,,https://maps.oohpublicidad.cl/espacios-publicitarios/apoquindo-mar-de-los-zargazos-o-p-ex-cristobal-colon-manquehue-sur/modal,https://maps.oohpublicidad.cl/espacios-publicitarios/markers/marker-shelter.png
76216163-3019-46d5-8adb-3c6d2ae35e4a,5 Totem Digital Unifaz - L1 Estacion Pajaritos,-33.45742596165208,-70.71592434792939,5-totem-digital-estacion-pajaritos-l1,,https://maps.oohpublicidad.cl/espacios-publicitarios/5-totem-digital-estacion-pajaritos-l1/modal,https://maps.oohpublicidad.cl/espacios-publicitarios/markers/marker-subway.png
e409431c-09c6-4787-a942-a534492cec23,1 Paneles - L5 Estacion Barrancas,-33.45245,-70.73904,paneles-l5-estacion-barrancas-1-l5br1002a,,https://maps.oohpublicidad.cl/espacios-publicitarios/paneles-l5-estacion-barrancas-1-l5br1002a/modal,https://maps.oohpublicidad.cl/espacios-publicitarios/markers/marker-subway.png
c7e514af-85e8-4b48-8d1c-97a21b47fc51,Cristobal Colón 5081 - Sebastián Elcano,-33.418799,-70.571744,cristobal-colon-5081-sebastian-elcano,,https://maps.oohpublicidad.cl/espacios-publicitarios/cristobal-colon-5081-sebastian-elcano/modal,https://maps.oohpublicidad.cl/espacios-publicitarios/markers/marker-shelter.png
137f09ee-b8ca-44ea-83ae-eb50420bfa4c,Talaveras de la Reina - Cristobal Colon,-33.416619,-70.541298,talaveras-de-la-reina-cristobal-colon,,https://maps.oohpublicidad.cl/espacios-publicitarios/talaveras-de-la-reina-cristobal-colon/modal,https://maps.oohpublicidad.cl/espacios-publicitarios/markers/marker-shelter.png
d76c564b-cd5b-44dd-b643-2b101a3cd6d3,Alameda Bernardo O¿Higgins 5972 / Pasaje El Roble 4850,-33.4578,-70.708,alameda-bernardo-o-higgins-5972-pasaje-el-roble-4850,,https://maps.oohpublicidad.cl/espacios-publicitarios/alameda-bernardo-o-higgins-5972-pasaje-el-roble-4850/modal,https://maps.oohpublicidad.cl/espacios-publicitarios/markers/marker-billboard.png
15386125-6b91-4ff2-b8a8-e13d75ec9231,Rotonda Atenas - Los Domínicos 7560,-33.417758,-70.552541,rotonda-atenas-los-dominicos,,https://maps.oohpublicidad.cl/espacios-publicitarios/rotonda-atenas-los-dominicos/modal,https://maps.oohpublicidad.cl/espacios-publicitarios/markers/marker-shelter.png
980f88a2-1a49-4b3e-8ed8-3a2764edb3e7,Cuarto Centenario - Fleming,-33.424421,-70.560188,cuarto-centenario-fleming,,https://maps.oohpublicidad.cl/espacios-publicitarios/cuarto-centenario-fleming/modal,https://maps.oohpublicidad.cl/espacios-publicitarios/markers/marker-shelter.png
756854a5-2450-4cb4-9507-6e89af4f5fa4,Hernando de Magallanes 973 - Av. Cristobal Colón,-33.417139,-70.560398,hernando-de-magallanes-973-av-cristobal-colon,,https://maps.oohpublicidad.cl/espacios-publicitarios/hernando-de-magallanes-973-av-cristobal-colon/modal,https://maps.oohpublicidad.cl/espacios-publicitarios/markers/marker-shelter.png
c5dc8f0a-a6ff-4195-a45f-f1914b465829,Del Inca 4489 - Cruz del Sur,-33.417632,-70.581225,del-inca-4489-cruz-del-sur,,https://maps.oohpublicidad.cl/espacios-publicitarios/del-inca-4489-cruz-del-sur/modal,https://maps.oohpublicidad.cl/espacios-publicitarios/markers/marker-shelter.png
d699cbec-43f2-40cc-a757-08c873bb5c22,Encomenderos 270 - Vitacura,-33.416397,-70.604426,encomenderos-270-vitacura,,https://maps.oohpublicidad.cl/espacios-publicitarios/encomenderos-270-vitacura/modal,https://maps.oohpublicidad.cl/espacios-publicitarios/markers/marker-shelter.png
6ab037c7-8fb3-4979-bfc5-88decfd055a9,Apoquindo 5950 - O´Connell (Ex - Manquehue Sur 1975 - Bilbao),-33.4088032,-70.564934,apoquindo-5950-o-connell-ex-manquehue-sur-1975-bilbao,,https://maps.oohpublicidad.cl/espacios-publicitarios/apoquindo-5950-o-connell-ex-manquehue-sur-1975-bilbao/modal,https://maps.oohpublicidad.cl/espacios-publicitarios/markers/marker-shelter.png
6e8b0598-34f7-4f88-9d3f-2d3501918003,1 Monumental Digital - L4 Estacion Tobalaba,-33.41829025723476,-70.60149638181457,1-monumental-digital-estacion-tobalaba-l4,,https://maps.oohpublicidad.cl/espacios-publicitarios/1-monumental-digital-estacion-tobalaba-l4/modal,https://maps.oohpublicidad.cl/espacios-publicitarios/markers/marker-subway.png
baa1f3dc-2a71-42bc-ac2d-831442b51e3a,Francisco Bilbao 7473 - Tomás Moro,-33.430605,-70.554405,francisco-bilbao-7473-tomas-moro,,https://maps.oohpublicidad.cl/espacios-publicitarios/francisco-bilbao-7473-tomas-moro/modal,https://maps.oohpublicidad.cl/espacios-publicitarios/markers/marker-shelter.png
c50f79b4-cd0d-41be-89b0-14c0a2387352,Gertrudis Echeñique 275 - Renato Sánchez,-33.418728,-70.590936,gertrudis-echenique-275-renato-sanchez,,https://maps.oohpublicidad.cl/espacios-publicitarios/gertrudis-echenique-275-renato-sanchez/modal,https://maps.oohpublicidad.cl/espacios-publicitarios/markers/marker-shelter.png
843406be-2224-4dc7-a797-955589797010,Isabel La Católica 6048 - Manquehue Sur,-33.425215,-70.563906,isabel-la-catolica-6048-manquehue-sur,,https://maps.oohpublicidad.cl/espacios-publicitarios/isabel-la-catolica-6048-manquehue-sur/modal,https://maps.oohpublicidad.cl/espacios-publicitarios/markers/marker-shelter.png
f638d47e-9f75-408e-a858-e5aa503d8c7b,Isabel La Católica 4331 - Santa Adriana,-33.427131,-70.578324,isabel-la-catolica-4331-santa-adriana,,https://maps.oohpublicidad.cl/espacios-publicitarios/isabel-la-catolica-4331-santa-adriana/modal,https://maps.oohpublicidad.cl/espacios-publicitarios/markers/marker-shelter.png
05d70723-6e34-4587-bba4-91e494e5c200,"Pasillo principal  H&M dirc Falabella, piso 1",-33.415126,-70.540593,pasillo-principal-h-m-dirc-falabella-piso-1,,https://maps.oohpublicidad.cl/espacios-publicitarios/pasillo-principal-h-m-dirc-falabella-piso-1/modal,https://maps.oohpublicidad.cl/espacios-publicitarios/markers/marker-building.png
1c1cb5fd-120a-4cb9-b5ae-5a4daf16c0bf,Isidora Goyenechea - Enrique Foster,-33.414405,-70.594577,isidora-goyenechea-enrique-foster,,https://maps.oohpublicidad.cl/espacios-publicitarios/isidora-goyenechea-enrique-foster/modal,https://maps.oohpublicidad.cl/espacios-publicitarios/markers/marker-shelter.png
988e9a0b-e8d3-4927-b58e-d903667ca06c,1 Paneles - L1 Estacion Ecuador,-33.4560627305413,-70.6996595458603,paneles-l1-estacion-ecuador-1-l1eq1002a,,https://maps.oohpublicidad.cl/espacios-publicitarios/paneles-l1-estacion-ecuador-1-l1eq1002a/modal,https://maps.oohpublicidad.cl/espacios-publicitarios/markers/marker-subway.png
55e1a565-a312-470b-9a64-61938ac5bda3,Isidora Goyenechea 3103 - Augusto Legía Norte,-33.414441,-70.597911,isidora-goyenechea-3103-augusto-legia-norte,,https://maps.oohpublicidad.cl/espacios-publicitarios/isidora-goyenechea-3103-augusto-legia-norte/modal,https://maps.oohpublicidad.cl/espacios-publicitarios/markers/marker-shelter.png
b9488e88-7ecb-4c58-8947-d72feebbada0,Isidora Goyenechea 3520 -  Magdalena,-33.414186,-70.593553,isidora-goyenechea-3520-magdalena,,https://maps.oohpublicidad.cl/espacios-publicitarios/isidora-goyenechea-3520-magdalena/modal,https://maps.oohpublicidad.cl/espacios-publicitarios/markers/marker-shelter.png
6e5980f7-f178-4c36-8757-1171d3e8ea61,Isidora Goyenechea 3278 - La Pastora,-33.414593,-70.596257,isidora-goyenechea-3278-la-pastora,,https://maps.oohpublicidad.cl/espacios-publicitarios/isidora-goyenechea-3278-la-pastora/modal,https://maps.oohpublicidad.cl/espacios-publicitarios/markers/marker-shelter.png
eabd1b11-9418-4737-85f9-9492ee00fc05,Muro - L3 Estación Plaza Quilicura,-33.3660298,-70.72999639999999,muro-l3-estacion-plaza-quilicura,,https://maps.oohpublicidad.cl/espacios-publicitarios/muro-l3-estacion-plaza-quilicura/modal,https://maps.oohpublicidad.cl/espacios-publicitarios/markers/marker-subway.png
a49304a4-4b8d-41cd-a7a6-0301e560de5f,Muro Asiento No.1 / L5 Estación Santa Ana,-33.43810330000001,-70.6599026,muro-asiento-no-1-l5-estacion-santa-ana,,https://maps.oohpublicidad.cl/espacios-publicitarios/muro-asiento-no-1-l5-estacion-santa-ana/modal,https://maps.oohpublicidad.cl/espacios-publicitarios/markers/marker-subway.png
b185d892-69e8-4c5f-8fdd-e935fc055784,Las Condes 9199 - Gilberto Fuenzalida,-33.392015,-70.542727,las-condes-9199-gilberto-fuenzalida,,https://maps.oohpublicidad.cl/espacios-publicitarios/las-condes-9199-gilberto-fuenzalida/modal,https://maps.oohpublicidad.cl/espacios-publicitarios/markers/marker-shelter.png
0db2f4f3-f9f6-47fc-8ea6-910f2a8b18ab,Las Condes 7186 - Los Barbechos,-33.404263,-70.557439,las-condes-7186-los-barbechos,,https://maps.oohpublicidad.cl/espacios-publicitarios/las-condes-7186-los-barbechos/modal,https://maps.oohpublicidad.cl/espacios-publicitarios/markers/marker-shelter.png
948f71d2-f835-4e74-aa7d-72150c05256a,Circuito (7) Pantallas Digitales Pilares (6 de 82'/1 de 65') - Nivel 02 - Costanera Center,-33.418,-70.6086,pantallas-digitales-pilares-6-de-82-1-de-65-nivel-02-costanera-center,,https://maps.oohpublicidad.cl/espacios-publicitarios/pantallas-digitales-pilares-6-de-82-1-de-65-nivel-02-costanera-center/modal,https://maps.oohpublicidad.cl/espacios-publicitarios/markers/marker-mall.png
1fb679c9-223c-4651-9ea2-f987cf4f20ee,1 Paneles - L4 Estacion Cristobal Colon,-33.42606,-70.59126,paneles-l4-estacion-cristobal-colon-1-l4co1002a,,https://maps.oohpublicidad.cl/espacios-publicitarios/paneles-l4-estacion-cristobal-colon-1-l4co1002a/modal,https://maps.oohpublicidad.cl/espacios-publicitarios/markers/marker-subway.png
fcf670a1-af9c-4a97-8787-d6e0288c5bb6,Las Condes 10287 - Estoril,-33.384239,-70.53399,las-condes-10287-estoril,,https://maps.oohpublicidad.cl/espacios-publicitarios/las-condes-10287-estoril/modal,https://maps.oohpublicidad.cl/espacios-publicitarios/markers/marker-shelter.png
0ef35fc8-6387-41c7-8815-e030ff441a6e,Las Condes 7498 - La Oracion,-33.402072,-70.555567,las-condes-7498-la-oracion,,https://maps.oohpublicidad.cl/espacios-publicitarios/las-condes-7498-la-oracion/modal,https://maps.oohpublicidad.cl/espacios-publicitarios/markers/marker-shelter.png
d4b36c61-494c-458a-8174-b2ae1a8a0ce1,Las Condes 12207 - Nueva Las Condes,-33.373308,-70.518859,las-condes-12207-nueva-las-condes,,https://maps.oohpublicidad.cl/espacios-publicitarios/las-condes-12207-nueva-las-condes/modal,https://maps.oohpublicidad.cl/espacios-publicitarios/markers/marker-shelter.png
